{
"type": "FeatureCollection",
"name": "Q53+_bus_stops",
"crs": { "type": "name", "properties": { "name": "urn:ogc:def:crs:OGC:1.3:CRS84" } },
"features": [
{ "type": "Feature", "properties": { "bus_route_id": "Q53+", "stop_id": "304417", "stop_name": "WYCKOFF ST/PALMETTO ST", "bus_stop_latitude": 40.69915, "bus_stop_longitude": -73.910476, "count_bus_route_id": "5" }, "geometry": { "type": "Point", "coordinates": [ -73.910476, 40.69915 ] } },
{ "type": "Feature", "properties": { "bus_route_id": "Q53+", "stop_id": "307175", "stop_name": "CADMAN PLAZA WEST/TILLARY ST", "bus_stop_latitude": 40.695995, "bus_stop_longitude": -73.990899, "count_bus_route_id": "1" }, "geometry": { "type": "Point", "coordinates": [ -73.990899, 40.695995 ] } },
{ "type": "Feature", "properties": { "bus_route_id": "Q53+", "stop_id": "307916", "stop_name": "WILLIAMSBURG BRIDGE PLAZA/BUS TERMINAL", "bus_stop_latitude": 40.709434, "bus_stop_longitude": -73.95931, "count_bus_route_id": "6" }, "geometry": { "type": "Point", "coordinates": [ -73.95931, 40.709434 ] } },
{ "type": "Feature", "properties": { "bus_route_id": "Q53+", "stop_id": "308271", "stop_name": "GRAND ST/UNION AV", "bus_stop_latitude": 40.711017, "bus_stop_longitude": -73.950982, "count_bus_route_id": "1" }, "geometry": { "type": "Point", "coordinates": [ -73.950982, 40.711017 ] } },
{ "type": "Feature", "properties": { "bus_route_id": "Q53+", "stop_id": "502992", "stop_name": "GRAND AV/QUEENS BLVD", "bus_stop_latitude": 40.736494, "bus_stop_longitude": -73.877838, "count_bus_route_id": "151" }, "geometry": { "type": "Point", "coordinates": [ -73.877838, 40.736494 ] } },
{ "type": "Feature", "properties": { "bus_route_id": "Q53+", "stop_id": "502994", "stop_name": "BROADWAY/CORONA AV", "bus_stop_latitude": 40.739332, "bus_stop_longitude": -73.877793, "count_bus_route_id": "1" }, "geometry": { "type": "Point", "coordinates": [ -73.877793, 40.739332 ] } },
{ "type": "Feature", "properties": { "bus_route_id": "Q53+", "stop_id": "503017", "stop_name": "BROADWAY/CORONA AV", "bus_stop_latitude": 40.739049, "bus_stop_longitude": -73.877764, "count_bus_route_id": "87" }, "geometry": { "type": "Point", "coordinates": [ -73.877764, 40.739049 ] } },
{ "type": "Feature", "properties": { "bus_route_id": "Q53+", "stop_id": "503018", "stop_name": "BROADWAY/QUEENS BLVD", "bus_stop_latitude": 40.737091, "bus_stop_longitude": -73.877464, "count_bus_route_id": "800" }, "geometry": { "type": "Point", "coordinates": [ -73.877464, 40.737091 ] } },
{ "type": "Feature", "properties": { "bus_route_id": "Q53+", "stop_id": "503018", "stop_name": "BROADWAY/QUEENS BLVD", "bus_stop_latitude": 40.737121, "bus_stop_longitude": -73.877551, "count_bus_route_id": "1893" }, "geometry": { "type": "Point", "coordinates": [ -73.877551, 40.737121 ] } },
{ "type": "Feature", "properties": { "bus_route_id": "Q53+", "stop_id": "503406", "stop_name": "JAMAICA AV/170 ST", "bus_stop_latitude": 40.707282, "bus_stop_longitude": -73.789588, "count_bus_route_id": "6" }, "geometry": { "type": "Point", "coordinates": [ -73.789588, 40.707282 ] } },
{ "type": "Feature", "properties": { "bus_route_id": "Q53+", "stop_id": "503478", "stop_name": "BROADWAY/JUSTICE AV", "bus_stop_latitude": 40.737519, "bus_stop_longitude": -73.877204, "count_bus_route_id": "138" }, "geometry": { "type": "Point", "coordinates": [ -73.877204, 40.737519 ] } },
{ "type": "Feature", "properties": { "bus_route_id": "Q53+", "stop_id": "503478", "stop_name": "BROADWAY/JUSTICE AV", "bus_stop_latitude": 40.737801, "bus_stop_longitude": -73.877105, "count_bus_route_id": "277" }, "geometry": { "type": "Point", "coordinates": [ -73.877105, 40.737801 ] } },
{ "type": "Feature", "properties": { "bus_route_id": "Q53+", "stop_id": "503511", "stop_name": "CORONA AV/51 AV", "bus_stop_latitude": 40.74363, "bus_stop_longitude": -73.855877, "count_bus_route_id": "1" }, "geometry": { "type": "Point", "coordinates": [ -73.855877, 40.74363 ] } },
{ "type": "Feature", "properties": { "bus_route_id": "Q53+", "stop_id": "503514", "stop_name": "CORONA AV/102 ST", "bus_stop_latitude": 40.744346, "bus_stop_longitude": -73.86218, "count_bus_route_id": "1" }, "geometry": { "type": "Point", "coordinates": [ -73.86218, 40.744346 ] } },
{ "type": "Feature", "properties": { "bus_route_id": "Q53+", "stop_id": "503519", "stop_name": "CORONA AV/91 PL", "bus_stop_latitude": 40.742375, "bus_stop_longitude": -73.873904, "count_bus_route_id": "26" }, "geometry": { "type": "Point", "coordinates": [ -73.873904, 40.742375 ] } },
{ "type": "Feature", "properties": { "bus_route_id": "Q53+", "stop_id": "503521", "stop_name": "CORONA AV/88 ST", "bus_stop_latitude": 40.740585, "bus_stop_longitude": -73.876296, "count_bus_route_id": "20" }, "geometry": { "type": "Point", "coordinates": [ -73.876296, 40.740585 ] } },
{ "type": "Feature", "properties": { "bus_route_id": "Q53+", "stop_id": "503864", "stop_name": "108 ST/VAN CLEEF ST", "bus_stop_latitude": 40.74094, "bus_stop_longitude": -73.853603, "count_bus_route_id": "1" }, "geometry": { "type": "Point", "coordinates": [ -73.853603, 40.74094 ] } },
{ "type": "Feature", "properties": { "bus_route_id": "Q53+", "stop_id": "504259", "stop_name": "METROPOLITAN AV/FRESH POND RD", "bus_stop_latitude": 40.712618, "bus_stop_longitude": -73.899752, "count_bus_route_id": "2" }, "geometry": { "type": "Point", "coordinates": [ -73.899752, 40.712618 ] } },
{ "type": "Feature", "properties": { "bus_route_id": "Q53+", "stop_id": "504324", "stop_name": "METROPOLITAN AV/FRESH POND RD", "bus_stop_latitude": 40.712776, "bus_stop_longitude": -73.901445, "count_bus_route_id": "21" }, "geometry": { "type": "Point", "coordinates": [ -73.901445, 40.712776 ] } },
{ "type": "Feature", "properties": { "bus_route_id": "Q53+", "stop_id": "550070", "stop_name": "CROSS BAY BLVD/LIBERTY AV", "bus_stop_latitude": 40.680274, "bus_stop_longitude": -73.844434, "count_bus_route_id": "19" }, "geometry": { "type": "Point", "coordinates": [ -73.844434, 40.680274 ] } },
{ "type": "Feature", "properties": { "bus_route_id": "Q53+", "stop_id": "550138", "stop_name": "CROSS BAY BLVD/LIBERTY AV", "bus_stop_latitude": 40.679836, "bus_stop_longitude": -73.844731, "count_bus_route_id": "507" }, "geometry": { "type": "Point", "coordinates": [ -73.844731, 40.679836 ] } },
{ "type": "Feature", "properties": { "bus_route_id": "Q53+", "stop_id": "550417", "stop_name": "CROSS BAY BLVD/163 AV", "bus_stop_latitude": 40.652627, "bus_stop_longitude": -73.838457, "count_bus_route_id": "114" }, "geometry": { "type": "Point", "coordinates": [ -73.838457, 40.652627 ] } },
{ "type": "Feature", "properties": { "bus_route_id": "Q53+", "stop_id": "550451", "stop_name": "WOODHAVEN BLVD/MYRTLE AV", "bus_stop_latitude": 40.702438, "bus_stop_longitude": -73.855076, "count_bus_route_id": "90" }, "geometry": { "type": "Point", "coordinates": [ -73.855076, 40.702438 ] } },
{ "type": "Feature", "properties": { "bus_route_id": "Q53+", "stop_id": "550473", "stop_name": "WOODHAVEN BLVD/PENELOPE AV", "bus_stop_latitude": 40.722487, "bus_stop_longitude": -73.867736, "count_bus_route_id": "727" }, "geometry": { "type": "Point", "coordinates": [ -73.867736, 40.722487 ] } },
{ "type": "Feature", "properties": { "bus_route_id": "Q53+", "stop_id": "550621", "stop_name": "ASTORIA BLVD/80 ST", "bus_stop_latitude": 40.765485, "bus_stop_longitude": -73.888882, "count_bus_route_id": "15" }, "geometry": { "type": "Point", "coordinates": [ -73.888882, 40.765485 ] } },
{ "type": "Feature", "properties": { "bus_route_id": "Q53+", "stop_id": "550653", "stop_name": "44 DR/HUNTER ST", "bus_stop_latitude": 40.747499, "bus_stop_longitude": -73.943528, "count_bus_route_id": "5" }, "geometry": { "type": "Point", "coordinates": [ -73.943528, 40.747499 ] } },
{ "type": "Feature", "properties": { "bus_route_id": "Q53+", "stop_id": "550690", "stop_name": "ROCKAWAY BEACH BLVD/BEACH 108 ST", "bus_stop_latitude": 40.581913, "bus_stop_longitude": -73.829356, "count_bus_route_id": "162" }, "geometry": { "type": "Point", "coordinates": [ -73.829356, 40.581913 ] } },
{ "type": "Feature", "properties": { "bus_route_id": "Q53+", "stop_id": "550691", "stop_name": "ROCKAWAY BEACH BLVD/BEACH 108 ST", "bus_stop_latitude": 40.582159, "bus_stop_longitude": -73.82954, "count_bus_route_id": "685" }, "geometry": { "type": "Point", "coordinates": [ -73.82954, 40.582159 ] } },
{ "type": "Feature", "properties": { "bus_route_id": "Q53+", "stop_id": "550696", "stop_name": "ROCKAWAY BEACH BLVD/BEACH 102 ST", "bus_stop_latitude": 40.583631, "bus_stop_longitude": -73.823241, "count_bus_route_id": "405" }, "geometry": { "type": "Point", "coordinates": [ -73.823241, 40.583631 ] } },
{ "type": "Feature", "properties": { "bus_route_id": "Q53+", "stop_id": "550702", "stop_name": "ROCKAWAY BEACH BLVD/BEACH 96 ST", "bus_stop_latitude": 40.585321, "bus_stop_longitude": -73.817844, "count_bus_route_id": "154" }, "geometry": { "type": "Point", "coordinates": [ -73.817844, 40.585321 ] } },
{ "type": "Feature", "properties": { "bus_route_id": "Q53+", "stop_id": "550703", "stop_name": "ROCKAWAY BEACH BLVD/BEACH 96 ST", "bus_stop_latitude": 40.585492, "bus_stop_longitude": -73.817916, "count_bus_route_id": "97" }, "geometry": { "type": "Point", "coordinates": [ -73.817916, 40.585492 ] } },
{ "type": "Feature", "properties": { "bus_route_id": "Q53+", "stop_id": "550713", "stop_name": "CROSS BAY BLVD/NOEL RD", "bus_stop_latitude": 40.607873, "bus_stop_longitude": -73.819479, "count_bus_route_id": "84" }, "geometry": { "type": "Point", "coordinates": [ -73.819479, 40.607873 ] } },
{ "type": "Feature", "properties": { "bus_route_id": "Q53+", "stop_id": "550713", "stop_name": "CROSS BAY BLVD/NOEL RD", "bus_stop_latitude": 40.607873, "bus_stop_longitude": -73.819473, "count_bus_route_id": "46" }, "geometry": { "type": "Point", "coordinates": [ -73.819473, 40.607873 ] } },
{ "type": "Feature", "properties": { "bus_route_id": "Q53+", "stop_id": "550726", "stop_name": "DITMARS BLVD/78 ST", "bus_stop_latitude": 40.76883, "bus_stop_longitude": -73.891842, "count_bus_route_id": "15" }, "geometry": { "type": "Point", "coordinates": [ -73.891842, 40.76883 ] } },
{ "type": "Feature", "properties": { "bus_route_id": "Q53+", "stop_id": "551609", "stop_name": "BEACH 116 ST/ROCKAWAY BEACH BLVD", "bus_stop_latitude": 40.580343, "bus_stop_longitude": -73.837347, "count_bus_route_id": "52" }, "geometry": { "type": "Point", "coordinates": [ -73.837347, 40.580343 ] } },
{ "type": "Feature", "properties": { "bus_route_id": "Q53+", "stop_id": "551609", "stop_name": "BEACH 116 ST/ROCKAWAY BEACH BLVD", "bus_stop_latitude": 40.580382, "bus_stop_longitude": -73.837399, "count_bus_route_id": "3" }, "geometry": { "type": "Point", "coordinates": [ -73.837399, 40.580382 ] } },
{ "type": "Feature", "properties": { "bus_route_id": "Q53+", "stop_id": "552958", "stop_name": "BROADWAY/78 ST", "bus_stop_latitude": 40.744691, "bus_stop_longitude": -73.886814, "count_bus_route_id": "1033" }, "geometry": { "type": "Point", "coordinates": [ -73.886814, 40.744691 ] } },
{ "type": "Feature", "properties": { "bus_route_id": "Q53+", "stop_id": "552992", "stop_name": "CROSS BAY BLVD/157 AV", "bus_stop_latitude": 40.662229, "bus_stop_longitude": -73.840796, "count_bus_route_id": "3194" }, "geometry": { "type": "Point", "coordinates": [ -73.840796, 40.662229 ] } },
{ "type": "Feature", "properties": { "bus_route_id": "Q53+", "stop_id": "552993", "stop_name": "HOFFMAN DR/WOODHAVEN BLVD", "bus_stop_latitude": 40.733152, "bus_stop_longitude": -73.871078, "count_bus_route_id": "2189" }, "geometry": { "type": "Point", "coordinates": [ -73.871078, 40.733152 ] } },
{ "type": "Feature", "properties": { "bus_route_id": "Q53+", "stop_id": "553013", "stop_name": "BROADWAY/75 ST", "bus_stop_latitude": 40.746212, "bus_stop_longitude": -73.890103, "count_bus_route_id": "3618" }, "geometry": { "type": "Point", "coordinates": [ -73.890103, 40.746212 ] } },
{ "type": "Feature", "properties": { "bus_route_id": "Q53+", "stop_id": "553014", "stop_name": "BROADWAY/75 ST", "bus_stop_latitude": 40.746085, "bus_stop_longitude": -73.890091, "count_bus_route_id": "897" }, "geometry": { "type": "Point", "coordinates": [ -73.890091, 40.746085 ] } },
{ "type": "Feature", "properties": { "bus_route_id": "Q53+", "stop_id": "553027", "stop_name": "CROSS BAY BLVD/E 16 RD", "bus_stop_latitude": 40.601521, "bus_stop_longitude": -73.820088, "count_bus_route_id": "58" }, "geometry": { "type": "Point", "coordinates": [ -73.820088, 40.601521 ] } },
{ "type": "Feature", "properties": { "bus_route_id": "Q53+", "stop_id": "553029", "stop_name": "ROCKAWAY BEACH BLVD/BEACH 102 ST", "bus_stop_latitude": 40.583863, "bus_stop_longitude": -73.823565, "count_bus_route_id": "118" }, "geometry": { "type": "Point", "coordinates": [ -73.823565, 40.583863 ] } },
{ "type": "Feature", "properties": { "bus_route_id": "Q53+", "stop_id": "553060", "stop_name": "44 DR/21 ST", "bus_stop_latitude": 40.74817, "bus_stop_longitude": -73.947217, "count_bus_route_id": "5" }, "geometry": { "type": "Point", "coordinates": [ -73.947217, 40.74817 ] } },
{ "type": "Feature", "properties": { "bus_route_id": "Q53+", "stop_id": "553141", "stop_name": "WOODHAVEN BLVD/METROPOLITAN AV", "bus_stop_latitude": 40.71208, "bus_stop_longitude": -73.859987, "count_bus_route_id": "1265" }, "geometry": { "type": "Point", "coordinates": [ -73.859987, 40.71208 ] } },
{ "type": "Feature", "properties": { "bus_route_id": "Q53+", "stop_id": "553213", "stop_name": "BROADWAY/WHITNEY AV", "bus_stop_latitude": 40.741451, "bus_stop_longitude": -73.880311, "count_bus_route_id": "2190" }, "geometry": { "type": "Point", "coordinates": [ -73.880311, 40.741451 ] } },
{ "type": "Feature", "properties": { "bus_route_id": "Q53+", "stop_id": "553214", "stop_name": "BROADWAY/WHITNEY AV", "bus_stop_latitude": 40.741418, "bus_stop_longitude": -73.88047, "count_bus_route_id": "468" }, "geometry": { "type": "Point", "coordinates": [ -73.88047, 40.741418 ] } },
{ "type": "Feature", "properties": { "bus_route_id": "Q53+", "stop_id": "553225", "stop_name": "CROSS BAY BLVD/WILDLIFE REFUGE", "bus_stop_latitude": 40.617377, "bus_stop_longitude": -73.823995, "count_bus_route_id": "87" }, "geometry": { "type": "Point", "coordinates": [ -73.823995, 40.617377 ] } },
{ "type": "Feature", "properties": { "bus_route_id": "Q53+", "stop_id": "553332", "stop_name": "ROOSEVELT AV/61 ST", "bus_stop_latitude": 40.745673, "bus_stop_longitude": -73.90211, "count_bus_route_id": "2760" }, "geometry": { "type": "Point", "coordinates": [ -73.90211, 40.745673 ] } },
{ "type": "Feature", "properties": { "bus_route_id": "Q53+", "stop_id": "553333", "stop_name": "QUEENS BLVD/59 AV", "bus_stop_latitude": 40.734077, "bus_stop_longitude": -73.871252, "count_bus_route_id": "1124" }, "geometry": { "type": "Point", "coordinates": [ -73.871252, 40.734077 ] } },
{ "type": "Feature", "properties": { "bus_route_id": "Q53+", "stop_id": "553333", "stop_name": "QUEENS BLVD/59 AV", "bus_stop_latitude": 40.734087, "bus_stop_longitude": -73.871334, "count_bus_route_id": "58" }, "geometry": { "type": "Point", "coordinates": [ -73.871334, 40.734087 ] } },
{ "type": "Feature", "properties": { "bus_route_id": "Q53+", "stop_id": "553346", "stop_name": "WOODHAVEN BLVD/101 AV", "bus_stop_latitude": 40.684372, "bus_stop_longitude": -73.846018, "count_bus_route_id": "27" }, "geometry": { "type": "Point", "coordinates": [ -73.846018, 40.684372 ] } },
{ "type": "Feature", "properties": { "bus_route_id": "Q53+", "stop_id": "553347", "stop_name": "WOODHAVEN BLVD/91 AV", "bus_stop_latitude": 40.690024, "bus_stop_longitude": -73.850033, "count_bus_route_id": "24" }, "geometry": { "type": "Point", "coordinates": [ -73.850033, 40.690024 ] } },
{ "type": "Feature", "properties": { "bus_route_id": "Q53+", "stop_id": "553348", "stop_name": "WOODHAVEN BLVD/JAMAICA AV", "bus_stop_latitude": 40.693825, "bus_stop_longitude": -73.852048, "count_bus_route_id": "186" }, "geometry": { "type": "Point", "coordinates": [ -73.852048, 40.693825 ] } },
{ "type": "Feature", "properties": { "bus_route_id": "Q53+", "stop_id": "553354", "stop_name": "WOODHAVEN BLVD/JAMAICA AV", "bus_stop_latitude": 40.69348, "bus_stop_longitude": -73.852235, "count_bus_route_id": "6" }, "geometry": { "type": "Point", "coordinates": [ -73.852235, 40.69348 ] } },
{ "type": "Feature", "properties": { "bus_route_id": "Q53+", "stop_id": "553358", "stop_name": "WOODHAVEN BLVD/91 AV", "bus_stop_latitude": 40.68992, "bus_stop_longitude": -73.85024, "count_bus_route_id": "36" }, "geometry": { "type": "Point", "coordinates": [ -73.85024, 40.68992 ] } },
{ "type": "Feature", "properties": { "bus_route_id": "Q53+", "stop_id": "553359", "stop_name": "WOODHAVEN BLVD/101 AV", "bus_stop_latitude": 40.684361, "bus_stop_longitude": -73.846244, "count_bus_route_id": "287" }, "geometry": { "type": "Point", "coordinates": [ -73.846244, 40.684361 ] } },
{ "type": "Feature", "properties": { "bus_route_id": "Q53+", "stop_id": "553360", "stop_name": "CROSS BAY BLVD/PITKIN AV", "bus_stop_latitude": 40.672086, "bus_stop_longitude": -73.843357, "count_bus_route_id": "474" }, "geometry": { "type": "Point", "coordinates": [ -73.843357, 40.672086 ] } },
{ "type": "Feature", "properties": { "bus_route_id": "Q53+", "stop_id": "553361", "stop_name": "CROSS BAY BLVD/PITKIN AV", "bus_stop_latitude": 40.672061, "bus_stop_longitude": -73.842954, "count_bus_route_id": "1024" }, "geometry": { "type": "Point", "coordinates": [ -73.842954, 40.672061 ] } },
{ "type": "Feature", "properties": { "bus_route_id": "Q53+", "stop_id": "553364", "stop_name": "CROSS BAY BLVD/NOEL RD", "bus_stop_latitude": 40.60794, "bus_stop_longitude": -73.819206, "count_bus_route_id": "18" }, "geometry": { "type": "Point", "coordinates": [ -73.819206, 40.60794 ] } },
{ "type": "Feature", "properties": { "bus_route_id": "Q53+", "stop_id": "553364", "stop_name": "CROSS BAY BLVD/NOEL RD", "bus_stop_latitude": 40.60796, "bus_stop_longitude": -73.819122, "count_bus_route_id": "55" }, "geometry": { "type": "Point", "coordinates": [ -73.819122, 40.60796 ] } },
{ "type": "Feature", "properties": { "bus_route_id": "Q53+", "stop_id": "553373", "stop_name": "WOODHAVEN BLVD/MYRTLE AV", "bus_stop_latitude": 40.702436, "bus_stop_longitude": -73.855474, "count_bus_route_id": "196" }, "geometry": { "type": "Point", "coordinates": [ -73.855474, 40.702436 ] } },
{ "type": "Feature", "properties": { "bus_route_id": "Q53+", "stop_id": "553375", "stop_name": "WOODHAVEN BLVD/EVERTON ST", "bus_stop_latitude": 40.723235, "bus_stop_longitude": -73.867954, "count_bus_route_id": "1754" }, "geometry": { "type": "Point", "coordinates": [ -73.867954, 40.723235 ] } },
{ "type": "Feature", "properties": { "bus_route_id": "Q53+", "stop_id": "553376", "stop_name": "CROSS BAY BLVD/157 AV", "bus_stop_latitude": 40.662449, "bus_stop_longitude": -73.840507, "count_bus_route_id": "1473" }, "geometry": { "type": "Point", "coordinates": [ -73.840507, 40.662449 ] } },
{ "type": "Feature", "properties": { "bus_route_id": "Q53+", "stop_id": "553377", "stop_name": "CROSS BAY BLVD/WILDLIFE REFUGE", "bus_stop_latitude": 40.61772, "bus_stop_longitude": -73.823793, "count_bus_route_id": "2530" }, "geometry": { "type": "Point", "coordinates": [ -73.823793, 40.61772 ] } },
{ "type": "Feature", "properties": { "bus_route_id": "Q53+", "stop_id": "553378", "stop_name": "WOODHAVEN BLVD/POLO PL", "bus_stop_latitude": 40.712454, "bus_stop_longitude": -73.859537, "count_bus_route_id": "863" }, "geometry": { "type": "Point", "coordinates": [ -73.859537, 40.712454 ] } },
{ "type": "Feature", "properties": { "bus_route_id": "Q53+", "stop_id": "553379", "stop_name": "CROSS BAY BLVD/W 17 RD", "bus_stop_latitude": 40.60106, "bus_stop_longitude": -73.820516, "count_bus_route_id": "19" }, "geometry": { "type": "Point", "coordinates": [ -73.820516, 40.60106 ] } },
{ "type": "Feature", "properties": { "bus_route_id": "Q53+", "stop_id": "801052", "stop_name": "ridgewood pl/palmetto st", "bus_stop_latitude": 40.698558, "bus_stop_longitude": -73.911285, "count_bus_route_id": "1" }, "geometry": { "type": "Point", "coordinates": [ -73.911285, 40.698558 ] } },
{ "type": "Feature", "properties": { "bus_route_id": "Q53+", "stop_id": "982075", "stop_name": "61 ST/ROOSEVELT AV", "bus_stop_latitude": 40.745765, "bus_stop_longitude": -73.903391, "count_bus_route_id": "519" }, "geometry": { "type": "Point", "coordinates": [ -73.903391, 40.745765 ] } },
{ "type": "Feature", "properties": { "bus_route_id": "Q53+", "stop_id": "982110", "stop_name": "BROADWAY/78 ST", "bus_stop_latitude": 40.744979, "bus_stop_longitude": -73.887208, "count_bus_route_id": "479" }, "geometry": { "type": "Point", "coordinates": [ -73.887208, 40.744979 ] } },
{ "type": "Feature", "properties": { "bus_route_id": "Q53+", "stop_id": "982111", "stop_name": "CROSS BAY BLVD/W 18 RD", "bus_stop_latitude": 40.600206, "bus_stop_longitude": -73.82068, "count_bus_route_id": "56" }, "geometry": { "type": "Point", "coordinates": [ -73.82068, 40.600206 ] } },
{ "type": "Feature", "properties": { "bus_route_id": "Q53+", "stop_id": "982137", "stop_name": "CROSS BAY BLVD/163 AV", "bus_stop_latitude": 40.652413, "bus_stop_longitude": -73.838019, "count_bus_route_id": "1019" }, "geometry": { "type": "Point", "coordinates": [ -73.838019, 40.652413 ] } }
]
}
