{
"type": "FeatureCollection",
"name": "Q58_bus_stops",
"crs": { "type": "name", "properties": { "name": "urn:ogc:def:crs:OGC:1.3:CRS84" } },
"features": [
{ "type": "Feature", "properties": { "bus_route_id": "Q58", "stop_id": "100646", "stop_name": "BOSTON RD/E 180 ST", "bus_stop_latitude": 40.842561, "bus_stop_longitude": -73.878332, "count_bus_route_id": "2" }, "geometry": { "type": "Point", "coordinates": [ -73.878332, 40.842561 ] } },
{ "type": "Feature", "properties": { "bus_route_id": "Q58", "stop_id": "103374", "stop_name": "BRUSH AV/BRUCKNER BLVD", "bus_stop_latitude": 40.828267, "bus_stop_longitude": -73.840953, "count_bus_route_id": "1" }, "geometry": { "type": "Point", "coordinates": [ -73.840953, 40.828267 ] } },
{ "type": "Feature", "properties": { "bus_route_id": "Q58", "stop_id": "103375", "stop_name": "CROSS BRONX EXPWY SERVICE RD/ZEREGA AV", "bus_stop_latitude": 40.828963, "bus_stop_longitude": -73.844303, "count_bus_route_id": "1" }, "geometry": { "type": "Point", "coordinates": [ -73.844303, 40.828963 ] } },
{ "type": "Feature", "properties": { "bus_route_id": "Q58", "stop_id": "103383", "stop_name": "CROSS BRONX EXPWY/ROSEDALE AV", "bus_stop_latitude": 40.83562, "bus_stop_longitude": -73.86977, "count_bus_route_id": "3" }, "geometry": { "type": "Point", "coordinates": [ -73.86977, 40.83562 ] } },
{ "type": "Feature", "properties": { "bus_route_id": "Q58", "stop_id": "103385", "stop_name": "CROSS BRONX EXPWY SERVICE RD/PUGSLEY AV", "bus_stop_latitude": 40.83193, "bus_stop_longitude": -73.857119, "count_bus_route_id": "1" }, "geometry": { "type": "Point", "coordinates": [ -73.857119, 40.83193 ] } },
{ "type": "Feature", "properties": { "bus_route_id": "Q58", "stop_id": "103392", "stop_name": "WESTCHESTER AV/HUGH J GRANT CIRCLE", "bus_stop_latitude": 40.832922, "bus_stop_longitude": -73.861742, "count_bus_route_id": "1" }, "geometry": { "type": "Point", "coordinates": [ -73.861742, 40.832922 ] } },
{ "type": "Feature", "properties": { "bus_route_id": "Q58", "stop_id": "103767", "stop_name": "LAFAYETTE AV/HUTCHINSON RIVER PKWY", "bus_stop_latitude": 40.824994, "bus_stop_longitude": -73.836838, "count_bus_route_id": "4" }, "geometry": { "type": "Point", "coordinates": [ -73.836838, 40.824994 ] } },
{ "type": "Feature", "properties": { "bus_route_id": "Q58", "stop_id": "103900", "stop_name": "CROSS BRONX EXPWY SERVICE RD SOUTH/BEACH AV", "bus_stop_latitude": 40.834919, "bus_stop_longitude": -73.867288, "count_bus_route_id": "4" }, "geometry": { "type": "Point", "coordinates": [ -73.867288, 40.834919 ] } },
{ "type": "Feature", "properties": { "bus_route_id": "Q58", "stop_id": "103995", "stop_name": "CROSS BRONX EXPWY SERVICE RD/HAVILAND AV", "bus_stop_latitude": 40.830446, "bus_stop_longitude": -73.850209, "count_bus_route_id": "1" }, "geometry": { "type": "Point", "coordinates": [ -73.850209, 40.830446 ] } },
{ "type": "Feature", "properties": { "bus_route_id": "Q58", "stop_id": "104004", "stop_name": "BRUCKNER BLVD/BRUSH AV", "bus_stop_latitude": 40.827862, "bus_stop_longitude": -73.83893, "count_bus_route_id": "2" }, "geometry": { "type": "Point", "coordinates": [ -73.83893, 40.827862 ] } },
{ "type": "Feature", "properties": { "bus_route_id": "Q58", "stop_id": "301856", "stop_name": "GRAND ST/OLIVE ST", "bus_stop_latitude": 40.712412, "bus_stop_longitude": -73.938816, "count_bus_route_id": "3" }, "geometry": { "type": "Point", "coordinates": [ -73.938816, 40.712412 ] } },
{ "type": "Feature", "properties": { "bus_route_id": "Q58", "stop_id": "301857", "stop_name": "GRAND ST/BUSHWICK AV", "bus_stop_latitude": 40.711905, "bus_stop_longitude": -73.941236, "count_bus_route_id": "4" }, "geometry": { "type": "Point", "coordinates": [ -73.941236, 40.711905 ] } },
{ "type": "Feature", "properties": { "bus_route_id": "Q58", "stop_id": "302292", "stop_name": "MARCY AV/S 4 ST", "bus_stop_latitude": 40.709501, "bus_stop_longitude": -73.95729, "count_bus_route_id": "8" }, "geometry": { "type": "Point", "coordinates": [ -73.95729, 40.709501 ] } },
{ "type": "Feature", "properties": { "bus_route_id": "Q58", "stop_id": "302310", "stop_name": "BROADWAY/MARCY AV", "bus_stop_latitude": 40.708638, "bus_stop_longitude": -73.958417, "count_bus_route_id": "9" }, "geometry": { "type": "Point", "coordinates": [ -73.958417, 40.708638 ] } },
{ "type": "Feature", "properties": { "bus_route_id": "Q58", "stop_id": "302312", "stop_name": "RODNEY ST/S 3 ST", "bus_stop_latitude": 40.710246, "bus_stop_longitude": -73.955254, "count_bus_route_id": "1" }, "geometry": { "type": "Point", "coordinates": [ -73.955254, 40.710246 ] } },
{ "type": "Feature", "properties": { "bus_route_id": "Q58", "stop_id": "302367", "stop_name": "FULTON ST/ASHLAND PL", "bus_stop_latitude": 40.687662, "bus_stop_longitude": -73.977949, "count_bus_route_id": "9" }, "geometry": { "type": "Point", "coordinates": [ -73.977949, 40.687662 ] } },
{ "type": "Feature", "properties": { "bus_route_id": "Q58", "stop_id": "302367", "stop_name": "FULTON ST/ASHLAND PL", "bus_stop_latitude": 40.68785, "bus_stop_longitude": -73.97845, "count_bus_route_id": "14" }, "geometry": { "type": "Point", "coordinates": [ -73.97845, 40.68785 ] } },
{ "type": "Feature", "properties": { "bus_route_id": "Q58", "stop_id": "302368", "stop_name": "FULTON ST/LAFAYETTE AV", "bus_stop_latitude": 40.687146, "bus_stop_longitude": -73.97669, "count_bus_route_id": "1" }, "geometry": { "type": "Point", "coordinates": [ -73.97669, 40.687146 ] } },
{ "type": "Feature", "properties": { "bus_route_id": "Q58", "stop_id": "302369", "stop_name": "FULTON ST/SOUTH PORTLAND AV", "bus_stop_latitude": 40.686059, "bus_stop_longitude": -73.974034, "count_bus_route_id": "3" }, "geometry": { "type": "Point", "coordinates": [ -73.974034, 40.686059 ] } },
{ "type": "Feature", "properties": { "bus_route_id": "Q58", "stop_id": "302370", "stop_name": "FULTON ST/CARLTON AV", "bus_stop_latitude": 40.68478, "bus_stop_longitude": -73.970798, "count_bus_route_id": "5" }, "geometry": { "type": "Point", "coordinates": [ -73.970798, 40.68478 ] } },
{ "type": "Feature", "properties": { "bus_route_id": "Q58", "stop_id": "302371", "stop_name": "FULTON ST/CLERMONT AV", "bus_stop_latitude": 40.683904, "bus_stop_longitude": -73.968617, "count_bus_route_id": "8" }, "geometry": { "type": "Point", "coordinates": [ -73.968617, 40.683904 ] } },
{ "type": "Feature", "properties": { "bus_route_id": "Q58", "stop_id": "302372", "stop_name": "FULTON ST/CLINTON AV", "bus_stop_latitude": 40.683332, "bus_stop_longitude": -73.966593, "count_bus_route_id": "3" }, "geometry": { "type": "Point", "coordinates": [ -73.966593, 40.683332 ] } },
{ "type": "Feature", "properties": { "bus_route_id": "Q58", "stop_id": "302374", "stop_name": "FULTON ST/WASHINGTON AV", "bus_stop_latitude": 40.682882, "bus_stop_longitude": -73.964338, "count_bus_route_id": "16" }, "geometry": { "type": "Point", "coordinates": [ -73.964338, 40.682882 ] } },
{ "type": "Feature", "properties": { "bus_route_id": "Q58", "stop_id": "302375", "stop_name": "FULTON ST/SAINT JAMES PL", "bus_stop_latitude": 40.682662, "bus_stop_longitude": -73.9633, "count_bus_route_id": "12" }, "geometry": { "type": "Point", "coordinates": [ -73.9633, 40.682662 ] } },
{ "type": "Feature", "properties": { "bus_route_id": "Q58", "stop_id": "302376", "stop_name": "FULTON ST/GRAND  AV", "bus_stop_latitude": 40.682232, "bus_stop_longitude": -73.961323, "count_bus_route_id": "11" }, "geometry": { "type": "Point", "coordinates": [ -73.961323, 40.682232 ] } },
{ "type": "Feature", "properties": { "bus_route_id": "Q58", "stop_id": "302419", "stop_name": "FULTON ST/GRAND AV", "bus_stop_latitude": 40.682497, "bus_stop_longitude": -73.961904, "count_bus_route_id": "6" }, "geometry": { "type": "Point", "coordinates": [ -73.961904, 40.682497 ] } },
{ "type": "Feature", "properties": { "bus_route_id": "Q58", "stop_id": "302421", "stop_name": "FULTON ST/WASHINGTON AV", "bus_stop_latitude": 40.6832, "bus_stop_longitude": -73.965264, "count_bus_route_id": "49" }, "geometry": { "type": "Point", "coordinates": [ -73.965264, 40.6832 ] } },
{ "type": "Feature", "properties": { "bus_route_id": "Q58", "stop_id": "302423", "stop_name": "FULTON ST/VANDERBILT AV", "bus_stop_latitude": 40.683948, "bus_stop_longitude": -73.968386, "count_bus_route_id": "3" }, "geometry": { "type": "Point", "coordinates": [ -73.968386, 40.683948 ] } },
{ "type": "Feature", "properties": { "bus_route_id": "Q58", "stop_id": "302424", "stop_name": "FULTON ST/ADELPHI ST", "bus_stop_latitude": 40.684791, "bus_stop_longitude": -73.97047, "count_bus_route_id": "4" }, "geometry": { "type": "Point", "coordinates": [ -73.97047, 40.684791 ] } },
{ "type": "Feature", "properties": { "bus_route_id": "Q58", "stop_id": "302426", "stop_name": "FULTON ST/GREENE AV", "bus_stop_latitude": 40.68573, "bus_stop_longitude": -73.972824, "count_bus_route_id": "21" }, "geometry": { "type": "Point", "coordinates": [ -73.972824, 40.68573 ] } },
{ "type": "Feature", "properties": { "bus_route_id": "Q58", "stop_id": "302427", "stop_name": "FULTON ST/SOUTH ELLIOT PL", "bus_stop_latitude": 40.686724, "bus_stop_longitude": -73.975391, "count_bus_route_id": "4" }, "geometry": { "type": "Point", "coordinates": [ -73.975391, 40.686724 ] } },
{ "type": "Feature", "properties": { "bus_route_id": "Q58", "stop_id": "302428", "stop_name": "FULTON ST/FORT GREENE PL", "bus_stop_latitude": 40.68738, "bus_stop_longitude": -73.977028, "count_bus_route_id": "3" }, "geometry": { "type": "Point", "coordinates": [ -73.977028, 40.68738 ] } },
{ "type": "Feature", "properties": { "bus_route_id": "Q58", "stop_id": "302430", "stop_name": "FULTON ST/HUDSON AV", "bus_stop_latitude": 40.688635, "bus_stop_longitude": -73.980164, "count_bus_route_id": "1" }, "geometry": { "type": "Point", "coordinates": [ -73.980164, 40.688635 ] } },
{ "type": "Feature", "properties": { "bus_route_id": "Q58", "stop_id": "302431", "stop_name": "FULTON ST/BOND ST", "bus_stop_latitude": 40.689671, "bus_stop_longitude": -73.982815, "count_bus_route_id": "1" }, "geometry": { "type": "Point", "coordinates": [ -73.982815, 40.689671 ] } },
{ "type": "Feature", "properties": { "bus_route_id": "Q58", "stop_id": "302433", "stop_name": "FULTON ST/JAY ST", "bus_stop_latitude": 40.691398, "bus_stop_longitude": -73.987134, "count_bus_route_id": "1" }, "geometry": { "type": "Point", "coordinates": [ -73.987134, 40.691398 ] } },
{ "type": "Feature", "properties": { "bus_route_id": "Q58", "stop_id": "302434", "stop_name": "COURT ST/MONTAGUE ST", "bus_stop_latitude": 40.693437, "bus_stop_longitude": -73.990476, "count_bus_route_id": "1" }, "geometry": { "type": "Point", "coordinates": [ -73.990476, 40.693437 ] } },
{ "type": "Feature", "properties": { "bus_route_id": "Q58", "stop_id": "302445", "stop_name": "JAY ST/WILLOUGHBY ST", "bus_stop_latitude": 40.692314, "bus_stop_longitude": -73.987319, "count_bus_route_id": "6" }, "geometry": { "type": "Point", "coordinates": [ -73.987319, 40.692314 ] } },
{ "type": "Feature", "properties": { "bus_route_id": "Q58", "stop_id": "302459", "stop_name": "PUTNAM AV/CLASSON AV", "bus_stop_latitude": 40.683011, "bus_stop_longitude": -73.958417, "count_bus_route_id": "23" }, "geometry": { "type": "Point", "coordinates": [ -73.958417, 40.683011 ] } },
{ "type": "Feature", "properties": { "bus_route_id": "Q58", "stop_id": "302460", "stop_name": "PUTNAM AV/FRANKLIN AV", "bus_stop_latitude": 40.683214, "bus_stop_longitude": -73.956265, "count_bus_route_id": "6" }, "geometry": { "type": "Point", "coordinates": [ -73.956265, 40.683214 ] } },
{ "type": "Feature", "properties": { "bus_route_id": "Q58", "stop_id": "302462", "stop_name": "PUTNAM AV/NOSTRAND AV", "bus_stop_latitude": 40.683851, "bus_stop_longitude": -73.950477, "count_bus_route_id": "19" }, "geometry": { "type": "Point", "coordinates": [ -73.950477, 40.683851 ] } },
{ "type": "Feature", "properties": { "bus_route_id": "Q58", "stop_id": "302464", "stop_name": "HALSEY ST/NOSTRAND AV", "bus_stop_latitude": 40.681803, "bus_stop_longitude": -73.949387, "count_bus_route_id": "3" }, "geometry": { "type": "Point", "coordinates": [ -73.949387, 40.681803 ] } },
{ "type": "Feature", "properties": { "bus_route_id": "Q58", "stop_id": "302465", "stop_name": "HALSEY ST/MARCY AV", "bus_stop_latitude": 40.682172, "bus_stop_longitude": -73.946206, "count_bus_route_id": "9" }, "geometry": { "type": "Point", "coordinates": [ -73.946206, 40.682172 ] } },
{ "type": "Feature", "properties": { "bus_route_id": "Q58", "stop_id": "302466", "stop_name": "HALSEY ST/TOMPKINS AV", "bus_stop_latitude": 40.682503, "bus_stop_longitude": -73.943314, "count_bus_route_id": "7" }, "geometry": { "type": "Point", "coordinates": [ -73.943314, 40.682503 ] } },
{ "type": "Feature", "properties": { "bus_route_id": "Q58", "stop_id": "302467", "stop_name": "HALSEY ST/THROOP AV", "bus_stop_latitude": 40.682831, "bus_stop_longitude": -73.940495, "count_bus_route_id": "3" }, "geometry": { "type": "Point", "coordinates": [ -73.940495, 40.682831 ] } },
{ "type": "Feature", "properties": { "bus_route_id": "Q58", "stop_id": "302468", "stop_name": "HALSEY ST/MARCUS GARVEY BLVD", "bus_stop_latitude": 40.683158, "bus_stop_longitude": -73.937613, "count_bus_route_id": "2" }, "geometry": { "type": "Point", "coordinates": [ -73.937613, 40.683158 ] } },
{ "type": "Feature", "properties": { "bus_route_id": "Q58", "stop_id": "302470", "stop_name": "HALSEY ST/STUYVESANT AV", "bus_stop_latitude": 40.683828, "bus_stop_longitude": -73.931822, "count_bus_route_id": "2" }, "geometry": { "type": "Point", "coordinates": [ -73.931822, 40.683828 ] } },
{ "type": "Feature", "properties": { "bus_route_id": "Q58", "stop_id": "302471", "stop_name": "HALSEY ST/MALCOLM X BLVD", "bus_stop_latitude": 40.684161, "bus_stop_longitude": -73.928858, "count_bus_route_id": "5" }, "geometry": { "type": "Point", "coordinates": [ -73.928858, 40.684161 ] } },
{ "type": "Feature", "properties": { "bus_route_id": "Q58", "stop_id": "302472", "stop_name": "HALSEY ST/PATCHEN AV", "bus_stop_latitude": 40.684496, "bus_stop_longitude": -73.925999, "count_bus_route_id": "1" }, "geometry": { "type": "Point", "coordinates": [ -73.925999, 40.684496 ] } },
{ "type": "Feature", "properties": { "bus_route_id": "Q58", "stop_id": "302473", "stop_name": "HALSEY ST/RALPH AV", "bus_stop_latitude": 40.68487, "bus_stop_longitude": -73.922695, "count_bus_route_id": "2" }, "geometry": { "type": "Point", "coordinates": [ -73.922695, 40.68487 ] } },
{ "type": "Feature", "properties": { "bus_route_id": "Q58", "stop_id": "302474", "stop_name": "HALSEY ST/HOWARD AV", "bus_stop_latitude": 40.685176, "bus_stop_longitude": -73.920038, "count_bus_route_id": "2" }, "geometry": { "type": "Point", "coordinates": [ -73.920038, 40.685176 ] } },
{ "type": "Feature", "properties": { "bus_route_id": "Q58", "stop_id": "302475", "stop_name": "HALSEY ST/SARATOGA AV", "bus_stop_latitude": 40.685492, "bus_stop_longitude": -73.917286, "count_bus_route_id": "3" }, "geometry": { "type": "Point", "coordinates": [ -73.917286, 40.685492 ] } },
{ "type": "Feature", "properties": { "bus_route_id": "Q58", "stop_id": "302476", "stop_name": "HALSEY ST/BROADWAY", "bus_stop_latitude": 40.685678, "bus_stop_longitude": -73.915671, "count_bus_route_id": "4" }, "geometry": { "type": "Point", "coordinates": [ -73.915671, 40.685678 ] } },
{ "type": "Feature", "properties": { "bus_route_id": "Q58", "stop_id": "302477", "stop_name": "HALSEY ST/BUSHWICK AV", "bus_stop_latitude": 40.687288, "bus_stop_longitude": -73.91361, "count_bus_route_id": "3" }, "geometry": { "type": "Point", "coordinates": [ -73.91361, 40.687288 ] } },
{ "type": "Feature", "properties": { "bus_route_id": "Q58", "stop_id": "302478", "stop_name": "HALSEY ST/EVERGREEN AV", "bus_stop_latitude": 40.688769, "bus_stop_longitude": -73.912155, "count_bus_route_id": "1" }, "geometry": { "type": "Point", "coordinates": [ -73.912155, 40.688769 ] } },
{ "type": "Feature", "properties": { "bus_route_id": "Q58", "stop_id": "302479", "stop_name": "HALSEY ST/CENTRAL AV", "bus_stop_latitude": 40.69025, "bus_stop_longitude": -73.910699, "count_bus_route_id": "1" }, "geometry": { "type": "Point", "coordinates": [ -73.910699, 40.69025 ] } },
{ "type": "Feature", "properties": { "bus_route_id": "Q58", "stop_id": "302480", "stop_name": "HALSEY ST/WILSON AV", "bus_stop_latitude": 40.691786, "bus_stop_longitude": -73.909194, "count_bus_route_id": "1" }, "geometry": { "type": "Point", "coordinates": [ -73.909194, 40.691786 ] } },
{ "type": "Feature", "properties": { "bus_route_id": "Q58", "stop_id": "302481", "stop_name": "HALSEY ST/KNICKERBOCKER AV", "bus_stop_latitude": 40.693192, "bus_stop_longitude": -73.907814, "count_bus_route_id": "1" }, "geometry": { "type": "Point", "coordinates": [ -73.907814, 40.693192 ] } },
{ "type": "Feature", "properties": { "bus_route_id": "Q58", "stop_id": "302482", "stop_name": "HALSEY ST/IRVING AV", "bus_stop_latitude": 40.694769, "bus_stop_longitude": -73.906243, "count_bus_route_id": "1" }, "geometry": { "type": "Point", "coordinates": [ -73.906243, 40.694769 ] } },
{ "type": "Feature", "properties": { "bus_route_id": "Q58", "stop_id": "302483", "stop_name": "HALSEY ST/WYCKOFF AV", "bus_stop_latitude": 40.696006, "bus_stop_longitude": -73.905023, "count_bus_route_id": "5" }, "geometry": { "type": "Point", "coordinates": [ -73.905023, 40.696006 ] } },
{ "type": "Feature", "properties": { "bus_route_id": "Q58", "stop_id": "302484", "stop_name": "WYCKOFF AV/WEIRFIELD ST", "bus_stop_latitude": 40.69682, "bus_stop_longitude": -73.906168, "count_bus_route_id": "4" }, "geometry": { "type": "Point", "coordinates": [ -73.906168, 40.69682 ] } },
{ "type": "Feature", "properties": { "bus_route_id": "Q58", "stop_id": "302489", "stop_name": "WYCKOFF AV/MADISON ST", "bus_stop_latitude": 40.698442, "bus_stop_longitude": -73.909242, "count_bus_route_id": "21" }, "geometry": { "type": "Point", "coordinates": [ -73.909242, 40.698442 ] } },
{ "type": "Feature", "properties": { "bus_route_id": "Q58", "stop_id": "302490", "stop_name": "WYCKOFF AV/JEFFERSON AV", "bus_stop_latitude": 40.697177, "bus_stop_longitude": -73.906979, "count_bus_route_id": "7" }, "geometry": { "type": "Point", "coordinates": [ -73.906979, 40.697177 ] } },
{ "type": "Feature", "properties": { "bus_route_id": "Q58", "stop_id": "302491", "stop_name": "WYCKOFF AV/WEIRFIELD ST", "bus_stop_latitude": 40.696605, "bus_stop_longitude": -73.905949, "count_bus_route_id": "2" }, "geometry": { "type": "Point", "coordinates": [ -73.905949, 40.696605 ] } },
{ "type": "Feature", "properties": { "bus_route_id": "Q58", "stop_id": "302492", "stop_name": "HALSEY ST/IRVING AV", "bus_stop_latitude": 40.694345, "bus_stop_longitude": -73.906828, "count_bus_route_id": "2" }, "geometry": { "type": "Point", "coordinates": [ -73.906828, 40.694345 ] } },
{ "type": "Feature", "properties": { "bus_route_id": "Q58", "stop_id": "302494", "stop_name": "HALSEY ST/WILSON AV", "bus_stop_latitude": 40.691254, "bus_stop_longitude": -73.909862, "count_bus_route_id": "9" }, "geometry": { "type": "Point", "coordinates": [ -73.909862, 40.691254 ] } },
{ "type": "Feature", "properties": { "bus_route_id": "Q58", "stop_id": "302495", "stop_name": "HALSEY ST/CENTRAL AV", "bus_stop_latitude": 40.6898, "bus_stop_longitude": -73.911291, "count_bus_route_id": "1" }, "geometry": { "type": "Point", "coordinates": [ -73.911291, 40.6898 ] } },
{ "type": "Feature", "properties": { "bus_route_id": "Q58", "stop_id": "302496", "stop_name": "HALSEY ST/EVERGREEN AV", "bus_stop_latitude": 40.688341, "bus_stop_longitude": -73.912728, "count_bus_route_id": "1" }, "geometry": { "type": "Point", "coordinates": [ -73.912728, 40.688341 ] } },
{ "type": "Feature", "properties": { "bus_route_id": "Q58", "stop_id": "302498", "stop_name": "HALSEY ST/BROADWAY", "bus_stop_latitude": 40.685757, "bus_stop_longitude": -73.915267, "count_bus_route_id": "4" }, "geometry": { "type": "Point", "coordinates": [ -73.915267, 40.685757 ] } },
{ "type": "Feature", "properties": { "bus_route_id": "Q58", "stop_id": "302499", "stop_name": "HALSEY ST/SARATOGA AV", "bus_stop_latitude": 40.685498, "bus_stop_longitude": -73.918137, "count_bus_route_id": "2" }, "geometry": { "type": "Point", "coordinates": [ -73.918137, 40.685498 ] } },
{ "type": "Feature", "properties": { "bus_route_id": "Q58", "stop_id": "302500", "stop_name": "HALSEY ST/HOWARD AV", "bus_stop_latitude": 40.685193, "bus_stop_longitude": -73.920816, "count_bus_route_id": "8" }, "geometry": { "type": "Point", "coordinates": [ -73.920816, 40.685193 ] } },
{ "type": "Feature", "properties": { "bus_route_id": "Q58", "stop_id": "302501", "stop_name": "HALSEY ST/RALPH AV", "bus_stop_latitude": 40.684885, "bus_stop_longitude": -73.923525, "count_bus_route_id": "2" }, "geometry": { "type": "Point", "coordinates": [ -73.923525, 40.684885 ] } },
{ "type": "Feature", "properties": { "bus_route_id": "Q58", "stop_id": "302502", "stop_name": "HALSEY ST/PATCHEN AV", "bus_stop_latitude": 40.684508, "bus_stop_longitude": -73.926806, "count_bus_route_id": "2" }, "geometry": { "type": "Point", "coordinates": [ -73.926806, 40.684508 ] } },
{ "type": "Feature", "properties": { "bus_route_id": "Q58", "stop_id": "302503", "stop_name": "HALSEY ST/MALCOLM X BLVD", "bus_stop_latitude": 40.684169, "bus_stop_longitude": -73.929745, "count_bus_route_id": "9" }, "geometry": { "type": "Point", "coordinates": [ -73.929745, 40.684169 ] } },
{ "type": "Feature", "properties": { "bus_route_id": "Q58", "stop_id": "302504", "stop_name": "HALSEY ST/STUYVESANT AV", "bus_stop_latitude": 40.683822, "bus_stop_longitude": -73.932639, "count_bus_route_id": "64" }, "geometry": { "type": "Point", "coordinates": [ -73.932639, 40.683822 ] } },
{ "type": "Feature", "properties": { "bus_route_id": "Q58", "stop_id": "302505", "stop_name": "HALSEY ST/LEWIS AV", "bus_stop_latitude": 40.6835, "bus_stop_longitude": -73.935554, "count_bus_route_id": "1" }, "geometry": { "type": "Point", "coordinates": [ -73.935554, 40.6835 ] } },
{ "type": "Feature", "properties": { "bus_route_id": "Q58", "stop_id": "302507", "stop_name": "HALSEY ST/THROOP AV", "bus_stop_latitude": 40.682837, "bus_stop_longitude": -73.941327, "count_bus_route_id": "6" }, "geometry": { "type": "Point", "coordinates": [ -73.941327, 40.682837 ] } },
{ "type": "Feature", "properties": { "bus_route_id": "Q58", "stop_id": "302508", "stop_name": "HALSEY ST/TOMPKINS AV", "bus_stop_latitude": 40.682506, "bus_stop_longitude": -73.944201, "count_bus_route_id": "3" }, "geometry": { "type": "Point", "coordinates": [ -73.944201, 40.682506 ] } },
{ "type": "Feature", "properties": { "bus_route_id": "Q58", "stop_id": "302509", "stop_name": "HALSEY ST/MARCY AV", "bus_stop_latitude": 40.682243, "bus_stop_longitude": -73.946469, "count_bus_route_id": "4" }, "geometry": { "type": "Point", "coordinates": [ -73.946469, 40.682243 ] } },
{ "type": "Feature", "properties": { "bus_route_id": "Q58", "stop_id": "302511", "stop_name": "HALSEY ST/BEDFORD AV", "bus_stop_latitude": 40.68145, "bus_stop_longitude": -73.953374, "count_bus_route_id": "34" }, "geometry": { "type": "Point", "coordinates": [ -73.953374, 40.68145 ] } },
{ "type": "Feature", "properties": { "bus_route_id": "Q58", "stop_id": "302512", "stop_name": "PUTNAM AV/BEDFORD AV", "bus_stop_latitude": 40.683605, "bus_stop_longitude": -73.954185, "count_bus_route_id": "11" }, "geometry": { "type": "Point", "coordinates": [ -73.954185, 40.683605 ] } },
{ "type": "Feature", "properties": { "bus_route_id": "Q58", "stop_id": "302513", "stop_name": "PUTNAM AV/FRANKLIN AV", "bus_stop_latitude": 40.68341, "bus_stop_longitude": -73.955972, "count_bus_route_id": "9" }, "geometry": { "type": "Point", "coordinates": [ -73.955972, 40.68341 ] } },
{ "type": "Feature", "properties": { "bus_route_id": "Q58", "stop_id": "302514", "stop_name": "PUTNAM AV/CLASSON AV", "bus_stop_latitude": 40.68304, "bus_stop_longitude": -73.959022, "count_bus_route_id": "46" }, "geometry": { "type": "Point", "coordinates": [ -73.959022, 40.68304 ] } },
{ "type": "Feature", "properties": { "bus_route_id": "Q58", "stop_id": "302947", "stop_name": "FULTON ST/BOND ST", "bus_stop_latitude": 40.689709, "bus_stop_longitude": -73.983099, "count_bus_route_id": "3" }, "geometry": { "type": "Point", "coordinates": [ -73.983099, 40.689709 ] } },
{ "type": "Feature", "properties": { "bus_route_id": "Q58", "stop_id": "304239", "stop_name": "BORINQUEN PL/S 1 ST", "bus_stop_latitude": 40.710775, "bus_stop_longitude": -73.952412, "count_bus_route_id": "12" }, "geometry": { "type": "Point", "coordinates": [ -73.952412, 40.710775 ] } },
{ "type": "Feature", "properties": { "bus_route_id": "Q58", "stop_id": "304244", "stop_name": "GRAND ST/GRAHAM AV", "bus_stop_latitude": 40.711655, "bus_stop_longitude": -73.943117, "count_bus_route_id": "8" }, "geometry": { "type": "Point", "coordinates": [ -73.943117, 40.711655 ] } },
{ "type": "Feature", "properties": { "bus_route_id": "Q58", "stop_id": "304246", "stop_name": "GRAND ST/WATERBURY ST", "bus_stop_latitude": 40.712415, "bus_stop_longitude": -73.938437, "count_bus_route_id": "11" }, "geometry": { "type": "Point", "coordinates": [ -73.938437, 40.712415 ] } },
{ "type": "Feature", "properties": { "bus_route_id": "Q58", "stop_id": "304249", "stop_name": "METROPOLITAN AV/GARDNER AV", "bus_stop_latitude": 40.713899, "bus_stop_longitude": -73.925825, "count_bus_route_id": "1" }, "geometry": { "type": "Point", "coordinates": [ -73.925825, 40.713899 ] } },
{ "type": "Feature", "properties": { "bus_route_id": "Q58", "stop_id": "304364", "stop_name": "METROPOLITAN AV/GARDNER AV", "bus_stop_latitude": 40.714199, "bus_stop_longitude": -73.92684, "count_bus_route_id": "3" }, "geometry": { "type": "Point", "coordinates": [ -73.92684, 40.714199 ] } },
{ "type": "Feature", "properties": { "bus_route_id": "Q58", "stop_id": "304368", "stop_name": "GRAND ST/MORGAN AV", "bus_stop_latitude": 40.71343, "bus_stop_longitude": -73.934716, "count_bus_route_id": "11" }, "geometry": { "type": "Point", "coordinates": [ -73.934716, 40.71343 ] } },
{ "type": "Feature", "properties": { "bus_route_id": "Q58", "stop_id": "304373", "stop_name": "GRAND ST/GRAHAM AV", "bus_stop_latitude": 40.711605, "bus_stop_longitude": -73.944534, "count_bus_route_id": "25" }, "geometry": { "type": "Point", "coordinates": [ -73.944534, 40.711605 ] } },
{ "type": "Feature", "properties": { "bus_route_id": "Q58", "stop_id": "304376", "stop_name": "GRAND ST/LORIMER ST", "bus_stop_latitude": 40.711154, "bus_stop_longitude": -73.949291, "count_bus_route_id": "19" }, "geometry": { "type": "Point", "coordinates": [ -73.949291, 40.711154 ] } },
{ "type": "Feature", "properties": { "bus_route_id": "Q58", "stop_id": "304417", "stop_name": "WYCKOFF ST/PALMETTO ST", "bus_stop_latitude": 40.69915, "bus_stop_longitude": -73.910476, "count_bus_route_id": "17" }, "geometry": { "type": "Point", "coordinates": [ -73.910476, 40.69915 ] } },
{ "type": "Feature", "properties": { "bus_route_id": "Q58", "stop_id": "304841", "stop_name": "PUTNAM AV/MYRTLE AV", "bus_stop_latitude": 40.699716, "bus_stop_longitude": -73.907354, "count_bus_route_id": "1464" }, "geometry": { "type": "Point", "coordinates": [ -73.907354, 40.699716 ] } },
{ "type": "Feature", "properties": { "bus_route_id": "Q58", "stop_id": "304842", "stop_name": "PUTNAM AV/WYCKOFF AV", "bus_stop_latitude": 40.698366, "bus_stop_longitude": -73.908719, "count_bus_route_id": "72" }, "geometry": { "type": "Point", "coordinates": [ -73.908719, 40.698366 ] } },
{ "type": "Feature", "properties": { "bus_route_id": "Q58", "stop_id": "304863", "stop_name": "GRAND ST/METRO BRIDGE", "bus_stop_latitude": 40.714024, "bus_stop_longitude": -73.932089, "count_bus_route_id": "1" }, "geometry": { "type": "Point", "coordinates": [ -73.932089, 40.714024 ] } },
{ "type": "Feature", "properties": { "bus_route_id": "Q58", "stop_id": "307175", "stop_name": "CADMAN PLAZA WEST/TILLARY ST", "bus_stop_latitude": 40.695988, "bus_stop_longitude": -73.991009, "count_bus_route_id": "1" }, "geometry": { "type": "Point", "coordinates": [ -73.991009, 40.695988 ] } },
{ "type": "Feature", "properties": { "bus_route_id": "Q58", "stop_id": "307175", "stop_name": "CADMAN PLAZA WEST/TILLARY ST", "bus_stop_latitude": 40.695995, "bus_stop_longitude": -73.990899, "count_bus_route_id": "2" }, "geometry": { "type": "Point", "coordinates": [ -73.990899, 40.695995 ] } },
{ "type": "Feature", "properties": { "bus_route_id": "Q58", "stop_id": "307426", "stop_name": "JAY ST/TILLARY ST", "bus_stop_latitude": 40.695699, "bus_stop_longitude": -73.987196, "count_bus_route_id": "3" }, "geometry": { "type": "Point", "coordinates": [ -73.987196, 40.695699 ] } },
{ "type": "Feature", "properties": { "bus_route_id": "Q58", "stop_id": "307491", "stop_name": "FULTON ST/HOYT ST", "bus_stop_latitude": 40.69069, "bus_stop_longitude": -73.985547, "count_bus_route_id": "1" }, "geometry": { "type": "Point", "coordinates": [ -73.985547, 40.69069 ] } },
{ "type": "Feature", "properties": { "bus_route_id": "Q58", "stop_id": "307492", "stop_name": "FULTON ST/DUFFIELD ST", "bus_stop_latitude": 40.690536, "bus_stop_longitude": -73.984949, "count_bus_route_id": "3" }, "geometry": { "type": "Point", "coordinates": [ -73.984949, 40.690536 ] } },
{ "type": "Feature", "properties": { "bus_route_id": "Q58", "stop_id": "307511", "stop_name": "HALSEY ST/MARCUS GARVEY BL", "bus_stop_latitude": 40.683164, "bus_stop_longitude": -73.938482, "count_bus_route_id": "1" }, "geometry": { "type": "Point", "coordinates": [ -73.938482, 40.683164 ] } },
{ "type": "Feature", "properties": { "bus_route_id": "Q58", "stop_id": "307511", "stop_name": "HALSEY ST/MARCUS GARVEY BLVD", "bus_stop_latitude": 40.683164, "bus_stop_longitude": -73.938482, "count_bus_route_id": "15" }, "geometry": { "type": "Point", "coordinates": [ -73.938482, 40.683164 ] } },
{ "type": "Feature", "properties": { "bus_route_id": "Q58", "stop_id": "307857", "stop_name": "METROPOLITAN AV/VARICK AV", "bus_stop_latitude": 40.714416, "bus_stop_longitude": -73.929401, "count_bus_route_id": "3" }, "geometry": { "type": "Point", "coordinates": [ -73.929401, 40.714416 ] } },
{ "type": "Feature", "properties": { "bus_route_id": "Q58", "stop_id": "307860", "stop_name": "GRAND ST/LORIMER ST", "bus_stop_latitude": 40.711148, "bus_stop_longitude": -73.948499, "count_bus_route_id": "3" }, "geometry": { "type": "Point", "coordinates": [ -73.948499, 40.711148 ] } },
{ "type": "Feature", "properties": { "bus_route_id": "Q58", "stop_id": "307918", "stop_name": "BORINQUEN PL/S 1 ST", "bus_stop_latitude": 40.710714, "bus_stop_longitude": -73.95392, "count_bus_route_id": "8" }, "geometry": { "type": "Point", "coordinates": [ -73.95392, 40.710714 ] } },
{ "type": "Feature", "properties": { "bus_route_id": "Q58", "stop_id": "307928", "stop_name": "HALSEY ST/NOSTRAND AV", "bus_stop_latitude": 40.68188, "bus_stop_longitude": -73.949674, "count_bus_route_id": "1" }, "geometry": { "type": "Point", "coordinates": [ -73.949674, 40.68188 ] } },
{ "type": "Feature", "properties": { "bus_route_id": "Q58", "stop_id": "308016", "stop_name": "HALSEY ST/BUSHWICK AV", "bus_stop_latitude": 40.686786, "bus_stop_longitude": -73.914259, "count_bus_route_id": "4" }, "geometry": { "type": "Point", "coordinates": [ -73.914259, 40.686786 ] } },
{ "type": "Feature", "properties": { "bus_route_id": "Q58", "stop_id": "308218", "stop_name": "METROPOLITAN AV/STEWART AV", "bus_stop_latitude": 40.71405, "bus_stop_longitude": -73.927647, "count_bus_route_id": "1" }, "geometry": { "type": "Point", "coordinates": [ -73.927647, 40.71405 ] } },
{ "type": "Feature", "properties": { "bus_route_id": "Q58", "stop_id": "308271", "stop_name": "GRAND ST/UNION AV", "bus_stop_latitude": 40.711017, "bus_stop_longitude": -73.950982, "count_bus_route_id": "11" }, "geometry": { "type": "Point", "coordinates": [ -73.950982, 40.711017 ] } },
{ "type": "Feature", "properties": { "bus_route_id": "Q58", "stop_id": "308272", "stop_name": "GRAND ST/UNION AV", "bus_stop_latitude": 40.71094, "bus_stop_longitude": -73.950691, "count_bus_route_id": "4" }, "geometry": { "type": "Point", "coordinates": [ -73.950691, 40.71094 ] } },
{ "type": "Feature", "properties": { "bus_route_id": "Q58", "stop_id": "308458", "stop_name": "METROPOLITAN AV/ONDERDONK AV", "bus_stop_latitude": 40.714014, "bus_stop_longitude": -73.924056, "count_bus_route_id": "2" }, "geometry": { "type": "Point", "coordinates": [ -73.924056, 40.714014 ] } },
{ "type": "Feature", "properties": { "bus_route_id": "Q58", "stop_id": "308488", "stop_name": "PALMETTO ST/MYRTLE AV", "bus_stop_latitude": 40.699352, "bus_stop_longitude": -73.911187, "count_bus_route_id": "2" }, "geometry": { "type": "Point", "coordinates": [ -73.911187, 40.699352 ] } },
{ "type": "Feature", "properties": { "bus_route_id": "Q58", "stop_id": "308488", "stop_name": "PALMETTO ST/WYCKOFF AV", "bus_stop_latitude": 40.699352, "bus_stop_longitude": -73.911187, "count_bus_route_id": "1120" }, "geometry": { "type": "Point", "coordinates": [ -73.911187, 40.699352 ] } },
{ "type": "Feature", "properties": { "bus_route_id": "Q58", "stop_id": "308503", "stop_name": "GRAND ST/BUSHWICK AV", "bus_stop_latitude": 40.712062, "bus_stop_longitude": -73.940017, "count_bus_route_id": "17" }, "geometry": { "type": "Point", "coordinates": [ -73.940017, 40.712062 ] } },
{ "type": "Feature", "properties": { "bus_route_id": "Q58", "stop_id": "501095", "stop_name": "UNION ST/BAYSIDE AV", "bus_stop_latitude": 40.770004, "bus_stop_longitude": -73.826504, "count_bus_route_id": "1" }, "geometry": { "type": "Point", "coordinates": [ -73.826504, 40.770004 ] } },
{ "type": "Feature", "properties": { "bus_route_id": "Q58", "stop_id": "501136", "stop_name": "UNION ST/26 AV", "bus_stop_latitude": 40.774385, "bus_stop_longitude": -73.826401, "count_bus_route_id": "1" }, "geometry": { "type": "Point", "coordinates": [ -73.826401, 40.774385 ] } },
{ "type": "Feature", "properties": { "bus_route_id": "Q58", "stop_id": "501138", "stop_name": "UNION ST/31 RD", "bus_stop_latitude": 40.770251, "bus_stop_longitude": -73.826647, "count_bus_route_id": "4" }, "geometry": { "type": "Point", "coordinates": [ -73.826647, 40.770251 ] } },
{ "type": "Feature", "properties": { "bus_route_id": "Q58", "stop_id": "502032", "stop_name": "SUTPHIN BLVD/HILLSIDE AV", "bus_stop_latitude": 40.705678, "bus_stop_longitude": -73.809604, "count_bus_route_id": "5" }, "geometry": { "type": "Point", "coordinates": [ -73.809604, 40.705678 ] } },
{ "type": "Feature", "properties": { "bus_route_id": "Q58", "stop_id": "502137", "stop_name": "SUTPHIN BLVD/HILLSIDE AV", "bus_stop_latitude": 40.705382, "bus_stop_longitude": -73.809594, "count_bus_route_id": "1" }, "geometry": { "type": "Point", "coordinates": [ -73.809594, 40.705382 ] } },
{ "type": "Feature", "properties": { "bus_route_id": "Q58", "stop_id": "502145", "stop_name": "JAMAICA AV /150 ST", "bus_stop_latitude": 40.70228, "bus_stop_longitude": -73.804354, "count_bus_route_id": "7" }, "geometry": { "type": "Point", "coordinates": [ -73.804354, 40.70228 ] } },
{ "type": "Feature", "properties": { "bus_route_id": "Q58", "stop_id": "502145", "stop_name": "JAMAICA AV/150 ST", "bus_stop_latitude": 40.702228, "bus_stop_longitude": -73.804326, "count_bus_route_id": "4" }, "geometry": { "type": "Point", "coordinates": [ -73.804326, 40.702228 ] } },
{ "type": "Feature", "properties": { "bus_route_id": "Q58", "stop_id": "502172", "stop_name": "MAIN ST/146 ST", "bus_stop_latitude": 40.740119, "bus_stop_longitude": -73.824891, "count_bus_route_id": "4" }, "geometry": { "type": "Point", "coordinates": [ -73.824891, 40.740119 ] } },
{ "type": "Feature", "properties": { "bus_route_id": "Q58", "stop_id": "502174", "stop_name": "MAIN ST/60 AV", "bus_stop_latitude": 40.74304, "bus_stop_longitude": -73.825468, "count_bus_route_id": "43" }, "geometry": { "type": "Point", "coordinates": [ -73.825468, 40.74304 ] } },
{ "type": "Feature", "properties": { "bus_route_id": "Q58", "stop_id": "502179", "stop_name": "MAIN ST/ELDER AV", "bus_stop_latitude": 40.751385, "bus_stop_longitude": -73.825899, "count_bus_route_id": "10" }, "geometry": { "type": "Point", "coordinates": [ -73.825899, 40.751385 ] } },
{ "type": "Feature", "properties": { "bus_route_id": "Q58", "stop_id": "502185", "stop_name": "MAIN ST/39 AV", "bus_stop_latitude": 40.760277, "bus_stop_longitude": -73.830409, "count_bus_route_id": "4" }, "geometry": { "type": "Point", "coordinates": [ -73.830409, 40.760277 ] } },
{ "type": "Feature", "properties": { "bus_route_id": "Q58", "stop_id": "502257", "stop_name": "MAIN ST/41 AV", "bus_stop_latitude": 40.757824, "bus_stop_longitude": -73.829419, "count_bus_route_id": "1" }, "geometry": { "type": "Point", "coordinates": [ -73.829419, 40.757824 ] } },
{ "type": "Feature", "properties": { "bus_route_id": "Q58", "stop_id": "502261", "stop_name": "MAIN ST/ELDER AV", "bus_stop_latitude": 40.751028, "bus_stop_longitude": -73.825891, "count_bus_route_id": "2" }, "geometry": { "type": "Point", "coordinates": [ -73.825891, 40.751028 ] } },
{ "type": "Feature", "properties": { "bus_route_id": "Q58", "stop_id": "502264", "stop_name": "MAIN ST/BOOTH MEMORIAL AV", "bus_stop_latitude": 40.746165, "bus_stop_longitude": -73.826222, "count_bus_route_id": "2" }, "geometry": { "type": "Point", "coordinates": [ -73.826222, 40.746165 ] } },
{ "type": "Feature", "properties": { "bus_route_id": "Q58", "stop_id": "502271", "stop_name": "MAIN ST/MELBOURNE AV", "bus_stop_latitude": 40.734072, "bus_stop_longitude": -73.825442, "count_bus_route_id": "2" }, "geometry": { "type": "Point", "coordinates": [ -73.825442, 40.734072 ] } },
{ "type": "Feature", "properties": { "bus_route_id": "Q58", "stop_id": "502274", "stop_name": "MAIN ST/JEWEL AV", "bus_stop_latitude": 40.730083, "bus_stop_longitude": -73.823644, "count_bus_route_id": "1" }, "geometry": { "type": "Point", "coordinates": [ -73.823644, 40.730083 ] } },
{ "type": "Feature", "properties": { "bus_route_id": "Q58", "stop_id": "502287", "stop_name": "MAIN ST/UNION TPKE", "bus_stop_latitude": 40.717798, "bus_stop_longitude": -73.817358, "count_bus_route_id": "1" }, "geometry": { "type": "Point", "coordinates": [ -73.817358, 40.717798 ] } },
{ "type": "Feature", "properties": { "bus_route_id": "Q58", "stop_id": "502982", "stop_name": "HORACE HARDING EXPWY/WALDRON ST", "bus_stop_latitude": 40.738218, "bus_stop_longitude": -73.850434, "count_bus_route_id": "60" }, "geometry": { "type": "Point", "coordinates": [ -73.850434, 40.738218 ] } },
{ "type": "Feature", "properties": { "bus_route_id": "Q58", "stop_id": "502992", "stop_name": "GRAND AV/QUEENS BL", "bus_stop_latitude": 40.736494, "bus_stop_longitude": -73.877838, "count_bus_route_id": "147" }, "geometry": { "type": "Point", "coordinates": [ -73.877838, 40.736494 ] } },
{ "type": "Feature", "properties": { "bus_route_id": "Q58", "stop_id": "502992", "stop_name": "GRAND AV/QUEENS BLVD", "bus_stop_latitude": 40.736494, "bus_stop_longitude": -73.877838, "count_bus_route_id": "441" }, "geometry": { "type": "Point", "coordinates": [ -73.877838, 40.736494 ] } },
{ "type": "Feature", "properties": { "bus_route_id": "Q58", "stop_id": "502994", "stop_name": "BROADWAY/CORONA AV", "bus_stop_latitude": 40.739332, "bus_stop_longitude": -73.877793, "count_bus_route_id": "112" }, "geometry": { "type": "Point", "coordinates": [ -73.877793, 40.739332 ] } },
{ "type": "Feature", "properties": { "bus_route_id": "Q58", "stop_id": "503017", "stop_name": "BROADWAY/CORONA AV", "bus_stop_latitude": 40.739049, "bus_stop_longitude": -73.877764, "count_bus_route_id": "411" }, "geometry": { "type": "Point", "coordinates": [ -73.877764, 40.739049 ] } },
{ "type": "Feature", "properties": { "bus_route_id": "Q58", "stop_id": "503018", "stop_name": "BROADWAY/QUEENS BL", "bus_stop_latitude": 40.737091, "bus_stop_longitude": -73.877464, "count_bus_route_id": "9" }, "geometry": { "type": "Point", "coordinates": [ -73.877464, 40.737091 ] } },
{ "type": "Feature", "properties": { "bus_route_id": "Q58", "stop_id": "503018", "stop_name": "BROADWAY/QUEENS BL", "bus_stop_latitude": 40.737121, "bus_stop_longitude": -73.877551, "count_bus_route_id": "5" }, "geometry": { "type": "Point", "coordinates": [ -73.877551, 40.737121 ] } },
{ "type": "Feature", "properties": { "bus_route_id": "Q58", "stop_id": "503018", "stop_name": "BROADWAY/QUEENS BLVD", "bus_stop_latitude": 40.737091, "bus_stop_longitude": -73.877464, "count_bus_route_id": "110" }, "geometry": { "type": "Point", "coordinates": [ -73.877464, 40.737091 ] } },
{ "type": "Feature", "properties": { "bus_route_id": "Q58", "stop_id": "503018", "stop_name": "BROADWAY/QUEENS BLVD", "bus_stop_latitude": 40.737121, "bus_stop_longitude": -73.877551, "count_bus_route_id": "101" }, "geometry": { "type": "Point", "coordinates": [ -73.877551, 40.737121 ] } },
{ "type": "Feature", "properties": { "bus_route_id": "Q58", "stop_id": "503185", "stop_name": "JAMAICA AV/169 ST", "bus_stop_latitude": 40.706762, "bus_stop_longitude": -73.791452, "count_bus_route_id": "1" }, "geometry": { "type": "Point", "coordinates": [ -73.791452, 40.706762 ] } },
{ "type": "Feature", "properties": { "bus_route_id": "Q58", "stop_id": "503200", "stop_name": "JAMAICA AV/PARSONS BLVD", "bus_stop_latitude": 40.70323, "bus_stop_longitude": -73.800447, "count_bus_route_id": "1" }, "geometry": { "type": "Point", "coordinates": [ -73.800447, 40.70323 ] } },
{ "type": "Feature", "properties": { "bus_route_id": "Q58", "stop_id": "503237", "stop_name": "METROPOLITAN AV/FOREST AV", "bus_stop_latitude": 40.712937, "bus_stop_longitude": -73.906296, "count_bus_route_id": "1" }, "geometry": { "type": "Point", "coordinates": [ -73.906296, 40.712937 ] } },
{ "type": "Feature", "properties": { "bus_route_id": "Q58", "stop_id": "503238", "stop_name": "METROPOLITAN AV/ANDREWS AV", "bus_stop_latitude": 40.713126, "bus_stop_longitude": -73.909323, "count_bus_route_id": "2" }, "geometry": { "type": "Point", "coordinates": [ -73.909323, 40.713126 ] } },
{ "type": "Feature", "properties": { "bus_route_id": "Q58", "stop_id": "503240", "stop_name": "COLLEGE POINT BLVD/59 AV", "bus_stop_latitude": 40.744715, "bus_stop_longitude": -73.836207, "count_bus_route_id": "35" }, "geometry": { "type": "Point", "coordinates": [ -73.836207, 40.744715 ] } },
{ "type": "Feature", "properties": { "bus_route_id": "Q58", "stop_id": "503258", "stop_name": "GRAND AV/73 ST", "bus_stop_latitude": 40.729453, "bus_stop_longitude": -73.889932, "count_bus_route_id": "1555" }, "geometry": { "type": "Point", "coordinates": [ -73.889932, 40.729453 ] } },
{ "type": "Feature", "properties": { "bus_route_id": "Q58", "stop_id": "503283", "stop_name": "JAMAICA AV /168 ST", "bus_stop_latitude": 40.706358, "bus_stop_longitude": -73.79217, "count_bus_route_id": "1" }, "geometry": { "type": "Point", "coordinates": [ -73.79217, 40.706358 ] } },
{ "type": "Feature", "properties": { "bus_route_id": "Q58", "stop_id": "503283", "stop_name": "JAMAICA AV/168 ST", "bus_stop_latitude": 40.706408, "bus_stop_longitude": -73.792308, "count_bus_route_id": "1" }, "geometry": { "type": "Point", "coordinates": [ -73.792308, 40.706408 ] } },
{ "type": "Feature", "properties": { "bus_route_id": "Q58", "stop_id": "503402", "stop_name": "JAMAICA AV/VAN WYCK EXPWY", "bus_stop_latitude": 40.702366, "bus_stop_longitude": -73.81695, "count_bus_route_id": "2" }, "geometry": { "type": "Point", "coordinates": [ -73.81695, 40.702366 ] } },
{ "type": "Feature", "properties": { "bus_route_id": "Q58", "stop_id": "503404", "stop_name": "JAMAICA AV/139 ST", "bus_stop_latitude": 40.702373, "bus_stop_longitude": -73.812541, "count_bus_route_id": "1" }, "geometry": { "type": "Point", "coordinates": [ -73.812541, 40.702373 ] } },
{ "type": "Feature", "properties": { "bus_route_id": "Q58", "stop_id": "503415", "stop_name": "JAMAICA AV/132 ST", "bus_stop_latitude": 40.702126, "bus_stop_longitude": -73.820801, "count_bus_route_id": "1" }, "geometry": { "type": "Point", "coordinates": [ -73.820801, 40.702126 ] } },
{ "type": "Feature", "properties": { "bus_route_id": "Q58", "stop_id": "503444", "stop_name": "COLLEGE POINT BLVD/HORACE HARDING EXPWY", "bus_stop_latitude": 40.743221, "bus_stop_longitude": -73.837083, "count_bus_route_id": "196" }, "geometry": { "type": "Point", "coordinates": [ -73.837083, 40.743221 ] } },
{ "type": "Feature", "properties": { "bus_route_id": "Q58", "stop_id": "503444", "stop_name": "COLLEGE PT BL/HORACE HARDING EXP", "bus_stop_latitude": 40.743221, "bus_stop_longitude": -73.837083, "count_bus_route_id": "3" }, "geometry": { "type": "Point", "coordinates": [ -73.837083, 40.743221 ] } },
{ "type": "Feature", "properties": { "bus_route_id": "Q58", "stop_id": "503450", "stop_name": "MADISON ST/ONDERDONK AV", "bus_stop_latitude": 40.703052, "bus_stop_longitude": -73.904991, "count_bus_route_id": "492" }, "geometry": { "type": "Point", "coordinates": [ -73.904991, 40.703052 ] } },
{ "type": "Feature", "properties": { "bus_route_id": "Q58", "stop_id": "503451", "stop_name": "MADISON ST/WOODWARD AV", "bus_stop_latitude": 40.70402, "bus_stop_longitude": -73.904052, "count_bus_route_id": "1641" }, "geometry": { "type": "Point", "coordinates": [ -73.904052, 40.70402 ] } },
{ "type": "Feature", "properties": { "bus_route_id": "Q58", "stop_id": "503452", "stop_name": "MADISON ST/FAIRVIEW AV", "bus_stop_latitude": 40.704989, "bus_stop_longitude": -73.903055, "count_bus_route_id": "120" }, "geometry": { "type": "Point", "coordinates": [ -73.903055, 40.704989 ] } },
{ "type": "Feature", "properties": { "bus_route_id": "Q58", "stop_id": "503453", "stop_name": "FAIRVIEW AV/FOREST AV", "bus_stop_latitude": 40.704364, "bus_stop_longitude": -73.901923, "count_bus_route_id": "1386" }, "geometry": { "type": "Point", "coordinates": [ -73.901923, 40.704364 ] } },
{ "type": "Feature", "properties": { "bus_route_id": "Q58", "stop_id": "503454", "stop_name": "67 AV/60 ST", "bus_stop_latitude": 40.704678, "bus_stop_longitude": -73.900551, "count_bus_route_id": "340" }, "geometry": { "type": "Point", "coordinates": [ -73.900551, 40.704678 ] } },
{ "type": "Feature", "properties": { "bus_route_id": "Q58", "stop_id": "503455", "stop_name": "67 AV/FRESH POND RD", "bus_stop_latitude": 40.705683, "bus_stop_longitude": -73.896695, "count_bus_route_id": "506" }, "geometry": { "type": "Point", "coordinates": [ -73.896695, 40.705683 ] } },
{ "type": "Feature", "properties": { "bus_route_id": "Q58", "stop_id": "503456", "stop_name": "FRESH POND RD/PUTNAM AV", "bus_stop_latitude": 40.706356, "bus_stop_longitude": -73.896715, "count_bus_route_id": "792" }, "geometry": { "type": "Point", "coordinates": [ -73.896715, 40.706356 ] } },
{ "type": "Feature", "properties": { "bus_route_id": "Q58", "stop_id": "503456", "stop_name": "FRESH POND RD/PUTNAM AV", "bus_stop_latitude": 40.706407, "bus_stop_longitude": -73.896832, "count_bus_route_id": "998" }, "geometry": { "type": "Point", "coordinates": [ -73.896832, 40.706407 ] } },
{ "type": "Feature", "properties": { "bus_route_id": "Q58", "stop_id": "503457", "stop_name": "FRESH POND RD/WOODBINE ST", "bus_stop_latitude": 40.708023, "bus_stop_longitude": -73.897694, "count_bus_route_id": "362" }, "geometry": { "type": "Point", "coordinates": [ -73.897694, 40.708023 ] } },
{ "type": "Feature", "properties": { "bus_route_id": "Q58", "stop_id": "503458", "stop_name": "FRESH POND RD/GATES AV", "bus_stop_latitude": 40.709326, "bus_stop_longitude": -73.898583, "count_bus_route_id": "844" }, "geometry": { "type": "Point", "coordinates": [ -73.898583, 40.709326 ] } },
{ "type": "Feature", "properties": { "bus_route_id": "Q58", "stop_id": "503459", "stop_name": "FRESH POND RD/GROVE ST", "bus_stop_latitude": 40.710175, "bus_stop_longitude": -73.899216, "count_bus_route_id": "419" }, "geometry": { "type": "Point", "coordinates": [ -73.899216, 40.710175 ] } },
{ "type": "Feature", "properties": { "bus_route_id": "Q58", "stop_id": "503461", "stop_name": "FRESH POND RD/ELIOT AV", "bus_stop_latitude": 40.714986, "bus_stop_longitude": -73.901197, "count_bus_route_id": "614" }, "geometry": { "type": "Point", "coordinates": [ -73.901197, 40.714986 ] } },
{ "type": "Feature", "properties": { "bus_route_id": "Q58", "stop_id": "503462", "stop_name": "FRESH POND RD/60 RD", "bus_stop_latitude": 40.716346, "bus_stop_longitude": -73.901546, "count_bus_route_id": "375" }, "geometry": { "type": "Point", "coordinates": [ -73.901546, 40.716346 ] } },
{ "type": "Feature", "properties": { "bus_route_id": "Q58", "stop_id": "503462", "stop_name": "FRESH POND RD/60 RD", "bus_stop_latitude": 40.71649, "bus_stop_longitude": -73.901595, "count_bus_route_id": "164" }, "geometry": { "type": "Point", "coordinates": [ -73.901595, 40.71649 ] } },
{ "type": "Feature", "properties": { "bus_route_id": "Q58", "stop_id": "503464", "stop_name": "FRESH POND RD/59 AV", "bus_stop_latitude": 40.719707, "bus_stop_longitude": -73.902537, "count_bus_route_id": "303" }, "geometry": { "type": "Point", "coordinates": [ -73.902537, 40.719707 ] } },
{ "type": "Feature", "properties": { "bus_route_id": "Q58", "stop_id": "503465", "stop_name": "FRESH POND RD/FLUSHING AV", "bus_stop_latitude": 40.721506, "bus_stop_longitude": -73.903054, "count_bus_route_id": "881" }, "geometry": { "type": "Point", "coordinates": [ -73.903054, 40.721506 ] } },
{ "type": "Feature", "properties": { "bus_route_id": "Q58", "stop_id": "503466", "stop_name": "FLUSHING AV/64 ST", "bus_stop_latitude": 40.722773, "bus_stop_longitude": -73.901124, "count_bus_route_id": "980" }, "geometry": { "type": "Point", "coordinates": [ -73.901124, 40.722773 ] } },
{ "type": "Feature", "properties": { "bus_route_id": "Q58", "stop_id": "503468", "stop_name": "GRAND AV/66 ST", "bus_stop_latitude": 40.724268, "bus_stop_longitude": -73.898362, "count_bus_route_id": "899" }, "geometry": { "type": "Point", "coordinates": [ -73.898362, 40.724268 ] } },
{ "type": "Feature", "properties": { "bus_route_id": "Q58", "stop_id": "503469", "stop_name": "GRAND AV/QUEENS MIDTOWN EP", "bus_stop_latitude": 40.725094, "bus_stop_longitude": -73.896739, "count_bus_route_id": "1" }, "geometry": { "type": "Point", "coordinates": [ -73.896739, 40.725094 ] } },
{ "type": "Feature", "properties": { "bus_route_id": "Q58", "stop_id": "503469", "stop_name": "GRAND AV/QUEENS MIDTOWN EXPWY", "bus_stop_latitude": 40.725094, "bus_stop_longitude": -73.896739, "count_bus_route_id": "598" }, "geometry": { "type": "Point", "coordinates": [ -73.896739, 40.725094 ] } },
{ "type": "Feature", "properties": { "bus_route_id": "Q58", "stop_id": "503470", "stop_name": "GRAND AV/69 PL", "bus_stop_latitude": 40.726466, "bus_stop_longitude": -73.894339, "count_bus_route_id": "2124" }, "geometry": { "type": "Point", "coordinates": [ -73.894339, 40.726466 ] } },
{ "type": "Feature", "properties": { "bus_route_id": "Q58", "stop_id": "503471", "stop_name": "GRAND AV/71 ST", "bus_stop_latitude": 40.72776, "bus_stop_longitude": -73.892151, "count_bus_route_id": "1175" }, "geometry": { "type": "Point", "coordinates": [ -73.892151, 40.72776 ] } },
{ "type": "Feature", "properties": { "bus_route_id": "Q58", "stop_id": "503472", "stop_name": "GRAND AV/74 ST", "bus_stop_latitude": 40.730283, "bus_stop_longitude": -73.887154, "count_bus_route_id": "505" }, "geometry": { "type": "Point", "coordinates": [ -73.887154, 40.730283 ] } },
{ "type": "Feature", "properties": { "bus_route_id": "Q58", "stop_id": "503473", "stop_name": "GRAND AV/79 ST", "bus_stop_latitude": 40.731137, "bus_stop_longitude": -73.885277, "count_bus_route_id": "585" }, "geometry": { "type": "Point", "coordinates": [ -73.885277, 40.731137 ] } },
{ "type": "Feature", "properties": { "bus_route_id": "Q58", "stop_id": "503475", "stop_name": "GRAND AV/84 ST", "bus_stop_latitude": 40.733451, "bus_stop_longitude": -73.883824, "count_bus_route_id": "1613" }, "geometry": { "type": "Point", "coordinates": [ -73.883824, 40.733451 ] } },
{ "type": "Feature", "properties": { "bus_route_id": "Q58", "stop_id": "503476", "stop_name": "GRAND AV/HASPEL ST", "bus_stop_latitude": 40.735058, "bus_stop_longitude": -73.881807, "count_bus_route_id": "595" }, "geometry": { "type": "Point", "coordinates": [ -73.881807, 40.735058 ] } },
{ "type": "Feature", "properties": { "bus_route_id": "Q58", "stop_id": "503477", "stop_name": "GRAND AV/VAN HORN ST", "bus_stop_latitude": 40.735806, "bus_stop_longitude": -73.880197, "count_bus_route_id": "175" }, "geometry": { "type": "Point", "coordinates": [ -73.880197, 40.735806 ] } },
{ "type": "Feature", "properties": { "bus_route_id": "Q58", "stop_id": "503478", "stop_name": "BROADWAY/JUSTICE AV", "bus_stop_latitude": 40.737519, "bus_stop_longitude": -73.877204, "count_bus_route_id": "216" }, "geometry": { "type": "Point", "coordinates": [ -73.877204, 40.737519 ] } },
{ "type": "Feature", "properties": { "bus_route_id": "Q58", "stop_id": "503478", "stop_name": "BROADWAY/JUSTICE AV", "bus_stop_latitude": 40.73759, "bus_stop_longitude": -73.877189, "count_bus_route_id": "43" }, "geometry": { "type": "Point", "coordinates": [ -73.877189, 40.73759 ] } },
{ "type": "Feature", "properties": { "bus_route_id": "Q58", "stop_id": "503478", "stop_name": "BROADWAY/JUSTICE AV", "bus_stop_latitude": 40.737801, "bus_stop_longitude": -73.877105, "count_bus_route_id": "224" }, "geometry": { "type": "Point", "coordinates": [ -73.877105, 40.737801 ] } },
{ "type": "Feature", "properties": { "bus_route_id": "Q58", "stop_id": "503479", "stop_name": "CORONA AV/88 ST", "bus_stop_latitude": 40.740412, "bus_stop_longitude": -73.876413, "count_bus_route_id": "73" }, "geometry": { "type": "Point", "coordinates": [ -73.876413, 40.740412 ] } },
{ "type": "Feature", "properties": { "bus_route_id": "Q58", "stop_id": "503480", "stop_name": "CORONA AV/90 ST", "bus_stop_latitude": 40.741382, "bus_stop_longitude": -73.875087, "count_bus_route_id": "655" }, "geometry": { "type": "Point", "coordinates": [ -73.875087, 40.741382 ] } },
{ "type": "Feature", "properties": { "bus_route_id": "Q58", "stop_id": "503481", "stop_name": "CORONA AV/91 PL", "bus_stop_latitude": 40.742443, "bus_stop_longitude": -73.873012, "count_bus_route_id": "1013" }, "geometry": { "type": "Point", "coordinates": [ -73.873012, 40.742443 ] } },
{ "type": "Feature", "properties": { "bus_route_id": "Q58", "stop_id": "503481", "stop_name": "CORONA AV/91 PL", "bus_stop_latitude": 40.742444, "bus_stop_longitude": -73.87281, "count_bus_route_id": "1138" }, "geometry": { "type": "Point", "coordinates": [ -73.87281, 40.742444 ] } },
{ "type": "Feature", "properties": { "bus_route_id": "Q58", "stop_id": "503482", "stop_name": "CORONA AV/94 ST", "bus_stop_latitude": 40.742305, "bus_stop_longitude": -73.870047, "count_bus_route_id": "1828" }, "geometry": { "type": "Point", "coordinates": [ -73.870047, 40.742305 ] } },
{ "type": "Feature", "properties": { "bus_route_id": "Q58", "stop_id": "503483", "stop_name": "CORONA AV/JUNCTION BLVD", "bus_stop_latitude": 40.742062, "bus_stop_longitude": -73.867676, "count_bus_route_id": "1661" }, "geometry": { "type": "Point", "coordinates": [ -73.867676, 40.742062 ] } },
{ "type": "Feature", "properties": { "bus_route_id": "Q58", "stop_id": "503484", "stop_name": "CORONA AV/ALSTYNE AV", "bus_stop_latitude": 40.743382, "bus_stop_longitude": -73.865956, "count_bus_route_id": "672" }, "geometry": { "type": "Point", "coordinates": [ -73.865956, 40.743382 ] } },
{ "type": "Feature", "properties": { "bus_route_id": "Q58", "stop_id": "503485", "stop_name": "CORONA AV/98 PL", "bus_stop_latitude": 40.744949, "bus_stop_longitude": -73.864488, "count_bus_route_id": "177" }, "geometry": { "type": "Point", "coordinates": [ -73.864488, 40.744949 ] } },
{ "type": "Feature", "properties": { "bus_route_id": "Q58", "stop_id": "503486", "stop_name": "CORONA AV/102 ST", "bus_stop_latitude": 40.744224, "bus_stop_longitude": -73.861633, "count_bus_route_id": "2176" }, "geometry": { "type": "Point", "coordinates": [ -73.861633, 40.744224 ] } },
{ "type": "Feature", "properties": { "bus_route_id": "Q58", "stop_id": "503487", "stop_name": "CORONA AV/104 ST", "bus_stop_latitude": 40.743955, "bus_stop_longitude": -73.858281, "count_bus_route_id": "2726" }, "geometry": { "type": "Point", "coordinates": [ -73.858281, 40.743955 ] } },
{ "type": "Feature", "properties": { "bus_route_id": "Q58", "stop_id": "503488", "stop_name": "CORONA AV/51 AV", "bus_stop_latitude": 40.743487, "bus_stop_longitude": -73.855716, "count_bus_route_id": "1117" }, "geometry": { "type": "Point", "coordinates": [ -73.855716, 40.743487 ] } },
{ "type": "Feature", "properties": { "bus_route_id": "Q58", "stop_id": "503490", "stop_name": "108 ST/MARTENSE AV", "bus_stop_latitude": 40.741913, "bus_stop_longitude": -73.854262, "count_bus_route_id": "773" }, "geometry": { "type": "Point", "coordinates": [ -73.854262, 40.741913 ] } },
{ "type": "Feature", "properties": { "bus_route_id": "Q58", "stop_id": "503490", "stop_name": "108 ST/MARTENSE AV", "bus_stop_latitude": 40.741925, "bus_stop_longitude": -73.854336, "count_bus_route_id": "1071" }, "geometry": { "type": "Point", "coordinates": [ -73.854336, 40.741925 ] } },
{ "type": "Feature", "properties": { "bus_route_id": "Q58", "stop_id": "503491", "stop_name": "108 ST/WALDRON ST", "bus_stop_latitude": 40.739159, "bus_stop_longitude": -73.852687, "count_bus_route_id": "337" }, "geometry": { "type": "Point", "coordinates": [ -73.852687, 40.739159 ] } },
{ "type": "Feature", "properties": { "bus_route_id": "Q58", "stop_id": "503491", "stop_name": "108 ST/WALDRON ST", "bus_stop_latitude": 40.739494, "bus_stop_longitude": -73.853028, "count_bus_route_id": "342" }, "geometry": { "type": "Point", "coordinates": [ -73.853028, 40.739494 ] } },
{ "type": "Feature", "properties": { "bus_route_id": "Q58", "stop_id": "503492", "stop_name": "108 ST/HORACE HARDING EXPWY", "bus_stop_latitude": 40.737814, "bus_stop_longitude": -73.852341, "count_bus_route_id": "18" }, "geometry": { "type": "Point", "coordinates": [ -73.852341, 40.737814 ] } },
{ "type": "Feature", "properties": { "bus_route_id": "Q58", "stop_id": "503492", "stop_name": "108 ST/HORACE HARDING EXPWY NORTH", "bus_stop_latitude": 40.737772, "bus_stop_longitude": -73.85216, "count_bus_route_id": "18" }, "geometry": { "type": "Point", "coordinates": [ -73.85216, 40.737772 ] } },
{ "type": "Feature", "properties": { "bus_route_id": "Q58", "stop_id": "503493", "stop_name": "COLLEGE POINT BLVD/58 RD", "bus_stop_latitude": 40.745711, "bus_stop_longitude": -73.83517, "count_bus_route_id": "523" }, "geometry": { "type": "Point", "coordinates": [ -73.83517, 40.745711 ] } },
{ "type": "Feature", "properties": { "bus_route_id": "Q58", "stop_id": "503493", "stop_name": "COLLEGE PT BL/58 RD", "bus_stop_latitude": 40.745711, "bus_stop_longitude": -73.83517, "count_bus_route_id": "1" }, "geometry": { "type": "Point", "coordinates": [ -73.83517, 40.745711 ] } },
{ "type": "Feature", "properties": { "bus_route_id": "Q58", "stop_id": "503494", "stop_name": "COLLEGE POINT BLVD/57 RD", "bus_stop_latitude": 40.74679, "bus_stop_longitude": -73.834629, "count_bus_route_id": "71" }, "geometry": { "type": "Point", "coordinates": [ -73.834629, 40.74679 ] } },
{ "type": "Feature", "properties": { "bus_route_id": "Q58", "stop_id": "503497", "stop_name": "COLLEGE POINT BLVD/MAPLE AV", "bus_stop_latitude": 40.754027, "bus_stop_longitude": -73.832887, "count_bus_route_id": "1255" }, "geometry": { "type": "Point", "coordinates": [ -73.832887, 40.754027 ] } },
{ "type": "Feature", "properties": { "bus_route_id": "Q58", "stop_id": "503499", "stop_name": "41 RD/COLLEGE POINT BLVD", "bus_stop_latitude": 40.755659, "bus_stop_longitude": -73.833009, "count_bus_route_id": "235" }, "geometry": { "type": "Point", "coordinates": [ -73.833009, 40.755659 ] } },
{ "type": "Feature", "properties": { "bus_route_id": "Q58", "stop_id": "503499", "stop_name": "41 RD/COLLEGE PT BL", "bus_stop_latitude": 40.755659, "bus_stop_longitude": -73.833009, "count_bus_route_id": "4" }, "geometry": { "type": "Point", "coordinates": [ -73.833009, 40.755659 ] } },
{ "type": "Feature", "properties": { "bus_route_id": "Q58", "stop_id": "503501", "stop_name": "41 RD/MAIN ST", "bus_stop_latitude": 40.757391, "bus_stop_longitude": -73.82929, "count_bus_route_id": "4180" }, "geometry": { "type": "Point", "coordinates": [ -73.82929, 40.757391 ] } },
{ "type": "Feature", "properties": { "bus_route_id": "Q58", "stop_id": "503501", "stop_name": "41 RD/MAIN ST", "bus_stop_latitude": 40.757393, "bus_stop_longitude": -73.829281, "count_bus_route_id": "1543" }, "geometry": { "type": "Point", "coordinates": [ -73.829281, 40.757393 ] } },
{ "type": "Feature", "properties": { "bus_route_id": "Q58", "stop_id": "503502", "stop_name": "COLLEGE POINT BLVD/SANFORD AV", "bus_stop_latitude": 40.754336, "bus_stop_longitude": -73.833082, "count_bus_route_id": "247" }, "geometry": { "type": "Point", "coordinates": [ -73.833082, 40.754336 ] } },
{ "type": "Feature", "properties": { "bus_route_id": "Q58", "stop_id": "503505", "stop_name": "COLLEGE POINT BLVD/VAN WYCK EXPWY EXIT", "bus_stop_latitude": 40.746654, "bus_stop_longitude": -73.834973, "count_bus_route_id": "14" }, "geometry": { "type": "Point", "coordinates": [ -73.834973, 40.746654 ] } },
{ "type": "Feature", "properties": { "bus_route_id": "Q58", "stop_id": "503506", "stop_name": "COLLEGE POINT BLVD/58 AV", "bus_stop_latitude": 40.746005, "bus_stop_longitude": -73.835312, "count_bus_route_id": "40" }, "geometry": { "type": "Point", "coordinates": [ -73.835312, 40.746005 ] } },
{ "type": "Feature", "properties": { "bus_route_id": "Q58", "stop_id": "503511", "stop_name": "CORONA AV/51 AV", "bus_stop_latitude": 40.74363, "bus_stop_longitude": -73.855877, "count_bus_route_id": "1529" }, "geometry": { "type": "Point", "coordinates": [ -73.855877, 40.74363 ] } },
{ "type": "Feature", "properties": { "bus_route_id": "Q58", "stop_id": "503513", "stop_name": "CORONA AV/104 ST", "bus_stop_latitude": 40.744099, "bus_stop_longitude": -73.859166, "count_bus_route_id": "1262" }, "geometry": { "type": "Point", "coordinates": [ -73.859166, 40.744099 ] } },
{ "type": "Feature", "properties": { "bus_route_id": "Q58", "stop_id": "503514", "stop_name": "CORONA AV/102 ST", "bus_stop_latitude": 40.744346, "bus_stop_longitude": -73.86218, "count_bus_route_id": "598" }, "geometry": { "type": "Point", "coordinates": [ -73.86218, 40.744346 ] } },
{ "type": "Feature", "properties": { "bus_route_id": "Q58", "stop_id": "503515", "stop_name": "CORONA AV/NATIONAL ST", "bus_stop_latitude": 40.744821, "bus_stop_longitude": -73.864781, "count_bus_route_id": "844" }, "geometry": { "type": "Point", "coordinates": [ -73.864781, 40.744821 ] } },
{ "type": "Feature", "properties": { "bus_route_id": "Q58", "stop_id": "503516", "stop_name": "CORONA AV/46 AV", "bus_stop_latitude": 40.743481, "bus_stop_longitude": -73.866029, "count_bus_route_id": "316" }, "geometry": { "type": "Point", "coordinates": [ -73.866029, 40.743481 ] } },
{ "type": "Feature", "properties": { "bus_route_id": "Q58", "stop_id": "503517", "stop_name": "CORONA AV/JUNCTION BLVD", "bus_stop_latitude": 40.742172, "bus_stop_longitude": -73.867254, "count_bus_route_id": "849" }, "geometry": { "type": "Point", "coordinates": [ -73.867254, 40.742172 ] } },
{ "type": "Feature", "properties": { "bus_route_id": "Q58", "stop_id": "503518", "stop_name": "CORONA AV/94 ST", "bus_stop_latitude": 40.74238, "bus_stop_longitude": -73.870005, "count_bus_route_id": "431" }, "geometry": { "type": "Point", "coordinates": [ -73.870005, 40.74238 ] } },
{ "type": "Feature", "properties": { "bus_route_id": "Q58", "stop_id": "503519", "stop_name": "CORONA AV/91 PL", "bus_stop_latitude": 40.742375, "bus_stop_longitude": -73.873904, "count_bus_route_id": "2275" }, "geometry": { "type": "Point", "coordinates": [ -73.873904, 40.742375 ] } },
{ "type": "Feature", "properties": { "bus_route_id": "Q58", "stop_id": "503520", "stop_name": "CORONA AV/90 ST", "bus_stop_latitude": 40.741585, "bus_stop_longitude": -73.874947, "count_bus_route_id": "76" }, "geometry": { "type": "Point", "coordinates": [ -73.874947, 40.741585 ] } },
{ "type": "Feature", "properties": { "bus_route_id": "Q58", "stop_id": "503521", "stop_name": "CORONA AV/88 ST", "bus_stop_latitude": 40.740585, "bus_stop_longitude": -73.876296, "count_bus_route_id": "81" }, "geometry": { "type": "Point", "coordinates": [ -73.876296, 40.740585 ] } },
{ "type": "Feature", "properties": { "bus_route_id": "Q58", "stop_id": "503522", "stop_name": "GRAND AV/QUEENS BLVD", "bus_stop_latitude": 40.736357, "bus_stop_longitude": -73.878318, "count_bus_route_id": "745" }, "geometry": { "type": "Point", "coordinates": [ -73.878318, 40.736357 ] } },
{ "type": "Feature", "properties": { "bus_route_id": "Q58", "stop_id": "503523", "stop_name": "GRAND AV/GOLDSMITH ST", "bus_stop_latitude": 40.735702, "bus_stop_longitude": -73.880889, "count_bus_route_id": "362" }, "geometry": { "type": "Point", "coordinates": [ -73.880889, 40.735702 ] } },
{ "type": "Feature", "properties": { "bus_route_id": "Q58", "stop_id": "503524", "stop_name": "GRAND AV/HASPEL ST", "bus_stop_latitude": 40.734958, "bus_stop_longitude": -73.882084, "count_bus_route_id": "281" }, "geometry": { "type": "Point", "coordinates": [ -73.882084, 40.734958 ] } },
{ "type": "Feature", "properties": { "bus_route_id": "Q58", "stop_id": "503525", "stop_name": "GRAND AV/CALAMUS AV", "bus_stop_latitude": 40.733361, "bus_stop_longitude": -73.884007, "count_bus_route_id": "593" }, "geometry": { "type": "Point", "coordinates": [ -73.884007, 40.733361 ] } },
{ "type": "Feature", "properties": { "bus_route_id": "Q58", "stop_id": "503526", "stop_name": "GRAND AV/82 ST", "bus_stop_latitude": 40.732141, "bus_stop_longitude": -73.88473, "count_bus_route_id": "91" }, "geometry": { "type": "Point", "coordinates": [ -73.88473, 40.732141 ] } },
{ "type": "Feature", "properties": { "bus_route_id": "Q58", "stop_id": "503527", "stop_name": "GRAND AV/79 ST", "bus_stop_latitude": 40.730814, "bus_stop_longitude": -73.885954, "count_bus_route_id": "464" }, "geometry": { "type": "Point", "coordinates": [ -73.885954, 40.730814 ] } },
{ "type": "Feature", "properties": { "bus_route_id": "Q58", "stop_id": "503528", "stop_name": "GRAND AV/74 ST", "bus_stop_latitude": 40.7301, "bus_stop_longitude": -73.888385, "count_bus_route_id": "1460" }, "geometry": { "type": "Point", "coordinates": [ -73.888385, 40.7301 ] } },
{ "type": "Feature", "properties": { "bus_route_id": "Q58", "stop_id": "503529", "stop_name": "GRAND AV/73 ST", "bus_stop_latitude": 40.729251, "bus_stop_longitude": -73.890277, "count_bus_route_id": "663" }, "geometry": { "type": "Point", "coordinates": [ -73.890277, 40.729251 ] } },
{ "type": "Feature", "properties": { "bus_route_id": "Q58", "stop_id": "503530", "stop_name": "GRAND AV/72 ST", "bus_stop_latitude": 40.728025, "bus_stop_longitude": -73.891827, "count_bus_route_id": "1790" }, "geometry": { "type": "Point", "coordinates": [ -73.891827, 40.728025 ] } },
{ "type": "Feature", "properties": { "bus_route_id": "Q58", "stop_id": "503531", "stop_name": "GRAND AV/69 PL", "bus_stop_latitude": 40.72635, "bus_stop_longitude": -73.894688, "count_bus_route_id": "551" }, "geometry": { "type": "Point", "coordinates": [ -73.894688, 40.72635 ] } },
{ "type": "Feature", "properties": { "bus_route_id": "Q58", "stop_id": "503532", "stop_name": "GRAND AV/BORDEN AV", "bus_stop_latitude": 40.725716, "bus_stop_longitude": -73.89579, "count_bus_route_id": "306" }, "geometry": { "type": "Point", "coordinates": [ -73.89579, 40.725716 ] } },
{ "type": "Feature", "properties": { "bus_route_id": "Q58", "stop_id": "503533", "stop_name": "GRAND AV/QUEENS MIDTOWN EXPWY", "bus_stop_latitude": 40.724911, "bus_stop_longitude": -73.897316, "count_bus_route_id": "436" }, "geometry": { "type": "Point", "coordinates": [ -73.897316, 40.724911 ] } },
{ "type": "Feature", "properties": { "bus_route_id": "Q58", "stop_id": "503535", "stop_name": "GRAND AV/REMSEN PL", "bus_stop_latitude": 40.723649, "bus_stop_longitude": -73.8998, "count_bus_route_id": "490" }, "geometry": { "type": "Point", "coordinates": [ -73.8998, 40.723649 ] } },
{ "type": "Feature", "properties": { "bus_route_id": "Q58", "stop_id": "503536", "stop_name": "FLUSHING AV/64 ST", "bus_stop_latitude": 40.722442, "bus_stop_longitude": -73.90188, "count_bus_route_id": "65" }, "geometry": { "type": "Point", "coordinates": [ -73.90188, 40.722442 ] } },
{ "type": "Feature", "properties": { "bus_route_id": "Q58", "stop_id": "503537", "stop_name": "FRESH POND RD/FLUSHING AV", "bus_stop_latitude": 40.721244, "bus_stop_longitude": -73.903057, "count_bus_route_id": "819" }, "geometry": { "type": "Point", "coordinates": [ -73.903057, 40.721244 ] } },
{ "type": "Feature", "properties": { "bus_route_id": "Q58", "stop_id": "503538", "stop_name": "FRESH POND RD/59 AV", "bus_stop_latitude": 40.719077, "bus_stop_longitude": -73.902497, "count_bus_route_id": "24" }, "geometry": { "type": "Point", "coordinates": [ -73.902497, 40.719077 ] } },
{ "type": "Feature", "properties": { "bus_route_id": "Q58", "stop_id": "503539", "stop_name": "FRESH POND RD/59 DR", "bus_stop_latitude": 40.718083, "bus_stop_longitude": -73.902217, "count_bus_route_id": "283" }, "geometry": { "type": "Point", "coordinates": [ -73.902217, 40.718083 ] } },
{ "type": "Feature", "properties": { "bus_route_id": "Q58", "stop_id": "503540", "stop_name": "FRESH POND RD/60 AV", "bus_stop_latitude": 40.716683, "bus_stop_longitude": -73.90183, "count_bus_route_id": "293" }, "geometry": { "type": "Point", "coordinates": [ -73.90183, 40.716683 ] } },
{ "type": "Feature", "properties": { "bus_route_id": "Q58", "stop_id": "503540", "stop_name": "FRESH POND RD/60 AV", "bus_stop_latitude": 40.716841, "bus_stop_longitude": -73.901821, "count_bus_route_id": "508" }, "geometry": { "type": "Point", "coordinates": [ -73.901821, 40.716841 ] } },
{ "type": "Feature", "properties": { "bus_route_id": "Q58", "stop_id": "503541", "stop_name": "FRESH POND RD/ELIOT AV", "bus_stop_latitude": 40.714725, "bus_stop_longitude": -73.901281, "count_bus_route_id": "269" }, "geometry": { "type": "Point", "coordinates": [ -73.901281, 40.714725 ] } },
{ "type": "Feature", "properties": { "bus_route_id": "Q58", "stop_id": "503541", "stop_name": "FRESH POND RD/ELIOT AV", "bus_stop_latitude": 40.714767, "bus_stop_longitude": -73.901289, "count_bus_route_id": "279" }, "geometry": { "type": "Point", "coordinates": [ -73.901289, 40.714767 ] } },
{ "type": "Feature", "properties": { "bus_route_id": "Q58", "stop_id": "503542", "stop_name": "FRESH POND RD/METROPOLITAN AV", "bus_stop_latitude": 40.712403, "bus_stop_longitude": -73.900537, "count_bus_route_id": "833" }, "geometry": { "type": "Point", "coordinates": [ -73.900537, 40.712403 ] } },
{ "type": "Feature", "properties": { "bus_route_id": "Q58", "stop_id": "503542", "stop_name": "FRESH POND RD/METROPOLITAN AV", "bus_stop_latitude": 40.712523, "bus_stop_longitude": -73.900714, "count_bus_route_id": "927" }, "geometry": { "type": "Point", "coordinates": [ -73.900714, 40.712523 ] } },
{ "type": "Feature", "properties": { "bus_route_id": "Q58", "stop_id": "503543", "stop_name": "FRESH POND RD/MENAHAN ST", "bus_stop_latitude": 40.710953, "bus_stop_longitude": -73.899793, "count_bus_route_id": "1367" }, "geometry": { "type": "Point", "coordinates": [ -73.899793, 40.710953 ] } },
{ "type": "Feature", "properties": { "bus_route_id": "Q58", "stop_id": "503544", "stop_name": "FRESH POND RD/LINDEN ST", "bus_stop_latitude": 40.709385, "bus_stop_longitude": -73.898796, "count_bus_route_id": "1075" }, "geometry": { "type": "Point", "coordinates": [ -73.898796, 40.709385 ] } },
{ "type": "Feature", "properties": { "bus_route_id": "Q58", "stop_id": "503545", "stop_name": "FRESH POND RD/PALMETTO ST", "bus_stop_latitude": 40.708097, "bus_stop_longitude": -73.897851, "count_bus_route_id": "1912" }, "geometry": { "type": "Point", "coordinates": [ -73.897851, 40.708097 ] } },
{ "type": "Feature", "properties": { "bus_route_id": "Q58", "stop_id": "503545", "stop_name": "FRESH POND RD/PALMETTO ST", "bus_stop_latitude": 40.708253, "bus_stop_longitude": -73.898006, "count_bus_route_id": "2302" }, "geometry": { "type": "Point", "coordinates": [ -73.898006, 40.708253 ] } },
{ "type": "Feature", "properties": { "bus_route_id": "Q58", "stop_id": "503551", "stop_name": "PARSONS BLVD/20 AV", "bus_stop_latitude": 40.781868, "bus_stop_longitude": -73.822021, "count_bus_route_id": "1" }, "geometry": { "type": "Point", "coordinates": [ -73.822021, 40.781868 ] } },
{ "type": "Feature", "properties": { "bus_route_id": "Q58", "stop_id": "503551", "stop_name": "PARSONS BLVD/20 AV", "bus_stop_latitude": 40.782022, "bus_stop_longitude": -73.8219, "count_bus_route_id": "1" }, "geometry": { "type": "Point", "coordinates": [ -73.8219, 40.782022 ] } },
{ "type": "Feature", "properties": { "bus_route_id": "Q58", "stop_id": "503591", "stop_name": "132 ST/JAMAICA AV", "bus_stop_latitude": 40.702222, "bus_stop_longitude": -73.820361, "count_bus_route_id": "6" }, "geometry": { "type": "Point", "coordinates": [ -73.820361, 40.702222 ] } },
{ "type": "Feature", "properties": { "bus_route_id": "Q58", "stop_id": "503689", "stop_name": "CORONA AV/93 ST", "bus_stop_latitude": 40.742369, "bus_stop_longitude": -73.87151, "count_bus_route_id": "276" }, "geometry": { "type": "Point", "coordinates": [ -73.87151, 40.742369 ] } },
{ "type": "Feature", "properties": { "bus_route_id": "Q58", "stop_id": "503707", "stop_name": "METROPOLITAN AV/STARR ST", "bus_stop_latitude": 40.71335, "bus_stop_longitude": -73.914305, "count_bus_route_id": "2" }, "geometry": { "type": "Point", "coordinates": [ -73.914305, 40.71335 ] } },
{ "type": "Feature", "properties": { "bus_route_id": "Q58", "stop_id": "503718", "stop_name": "JAMAICA AV/SUTPHIN BL", "bus_stop_latitude": 40.701795, "bus_stop_longitude": -73.807803, "count_bus_route_id": "2" }, "geometry": { "type": "Point", "coordinates": [ -73.807803, 40.701795 ] } },
{ "type": "Feature", "properties": { "bus_route_id": "Q58", "stop_id": "503718", "stop_name": "JAMAICA AV/SUTPHIN BLVD", "bus_stop_latitude": 40.701795, "bus_stop_longitude": -73.807803, "count_bus_route_id": "6" }, "geometry": { "type": "Point", "coordinates": [ -73.807803, 40.701795 ] } },
{ "type": "Feature", "properties": { "bus_route_id": "Q58", "stop_id": "503718", "stop_name": "JAMAICA AV/SUTPHIN BLVD", "bus_stop_latitude": 40.701809, "bus_stop_longitude": -73.808256, "count_bus_route_id": "6" }, "geometry": { "type": "Point", "coordinates": [ -73.808256, 40.701809 ] } },
{ "type": "Feature", "properties": { "bus_route_id": "Q58", "stop_id": "503725", "stop_name": "METROPOLITAN AV/TOYS R US", "bus_stop_latitude": 40.712216, "bus_stop_longitude": -73.890736, "count_bus_route_id": "1" }, "geometry": { "type": "Point", "coordinates": [ -73.890736, 40.712216 ] } },
{ "type": "Feature", "properties": { "bus_route_id": "Q58", "stop_id": "503725", "stop_name": "METROPOLITAN AV/TOYS R US", "bus_stop_latitude": 40.712277, "bus_stop_longitude": -73.891242, "count_bus_route_id": "1" }, "geometry": { "type": "Point", "coordinates": [ -73.891242, 40.712277 ] } },
{ "type": "Feature", "properties": { "bus_route_id": "Q58", "stop_id": "503727", "stop_name": "JAMAICA AV/147 PL", "bus_stop_latitude": 40.701715, "bus_stop_longitude": -73.807033, "count_bus_route_id": "2" }, "geometry": { "type": "Point", "coordinates": [ -73.807033, 40.701715 ] } },
{ "type": "Feature", "properties": { "bus_route_id": "Q58", "stop_id": "503825", "stop_name": "JAMAICA AV/138 ST", "bus_stop_latitude": 40.702449, "bus_stop_longitude": -73.81507, "count_bus_route_id": "2" }, "geometry": { "type": "Point", "coordinates": [ -73.81507, 40.702449 ] } },
{ "type": "Feature", "properties": { "bus_route_id": "Q58", "stop_id": "503834", "stop_name": "METROPOLITAN AV/FLUSHING AV", "bus_stop_latitude": 40.713571, "bus_stop_longitude": -73.916123, "count_bus_route_id": "1" }, "geometry": { "type": "Point", "coordinates": [ -73.916123, 40.713571 ] } },
{ "type": "Feature", "properties": { "bus_route_id": "Q58", "stop_id": "503862", "stop_name": "108 ST/HORACE HARDING EXPWY", "bus_stop_latitude": 40.737858, "bus_stop_longitude": -73.851901, "count_bus_route_id": "1247" }, "geometry": { "type": "Point", "coordinates": [ -73.851901, 40.737858 ] } },
{ "type": "Feature", "properties": { "bus_route_id": "Q58", "stop_id": "503862", "stop_name": "108 ST/HORACE HARDING EXPWY", "bus_stop_latitude": 40.737983, "bus_stop_longitude": -73.852172, "count_bus_route_id": "981" }, "geometry": { "type": "Point", "coordinates": [ -73.852172, 40.737983 ] } },
{ "type": "Feature", "properties": { "bus_route_id": "Q58", "stop_id": "503863", "stop_name": "108 ST/WALDRON ST", "bus_stop_latitude": 40.739108, "bus_stop_longitude": -73.852723, "count_bus_route_id": "232" }, "geometry": { "type": "Point", "coordinates": [ -73.852723, 40.739108 ] } },
{ "type": "Feature", "properties": { "bus_route_id": "Q58", "stop_id": "503863", "stop_name": "108 ST/WALDRON ST", "bus_stop_latitude": 40.739531, "bus_stop_longitude": -73.853114, "count_bus_route_id": "269" }, "geometry": { "type": "Point", "coordinates": [ -73.853114, 40.739531 ] } },
{ "type": "Feature", "properties": { "bus_route_id": "Q58", "stop_id": "503864", "stop_name": "108 ST/VAN CLEEF ST", "bus_stop_latitude": 40.740922, "bus_stop_longitude": -73.853707, "count_bus_route_id": "830" }, "geometry": { "type": "Point", "coordinates": [ -73.853707, 40.740922 ] } },
{ "type": "Feature", "properties": { "bus_route_id": "Q58", "stop_id": "503864", "stop_name": "108 ST/VAN CLEEF ST", "bus_stop_latitude": 40.74094, "bus_stop_longitude": -73.853603, "count_bus_route_id": "1006" }, "geometry": { "type": "Point", "coordinates": [ -73.853603, 40.74094 ] } },
{ "type": "Feature", "properties": { "bus_route_id": "Q58", "stop_id": "503932", "stop_name": "JAMAICA AV/PARSONS BLVD", "bus_stop_latitude": 40.703368, "bus_stop_longitude": -73.80055, "count_bus_route_id": "1" }, "geometry": { "type": "Point", "coordinates": [ -73.80055, 40.703368 ] } },
{ "type": "Feature", "properties": { "bus_route_id": "Q58", "stop_id": "503938", "stop_name": "JAMAICA AV/GUY R BREWER BLVD", "bus_stop_latitude": 40.704502, "bus_stop_longitude": -73.797125, "count_bus_route_id": "1" }, "geometry": { "type": "Point", "coordinates": [ -73.797125, 40.704502 ] } },
{ "type": "Feature", "properties": { "bus_route_id": "Q58", "stop_id": "503953", "stop_name": "JAMAICA AV /162 ST", "bus_stop_latitude": 40.704195, "bus_stop_longitude": -73.798487, "count_bus_route_id": "3" }, "geometry": { "type": "Point", "coordinates": [ -73.798487, 40.704195 ] } },
{ "type": "Feature", "properties": { "bus_route_id": "Q58", "stop_id": "503953", "stop_name": "JAMAICA AV/162 ST", "bus_stop_latitude": 40.704244, "bus_stop_longitude": -73.798183, "count_bus_route_id": "1" }, "geometry": { "type": "Point", "coordinates": [ -73.798183, 40.704244 ] } },
{ "type": "Feature", "properties": { "bus_route_id": "Q58", "stop_id": "503956", "stop_name": "COLLEGE POINT BLVD/BOOTH MEMORIAL AV", "bus_stop_latitude": 40.748293, "bus_stop_longitude": -73.832893, "count_bus_route_id": "546" }, "geometry": { "type": "Point", "coordinates": [ -73.832893, 40.748293 ] } },
{ "type": "Feature", "properties": { "bus_route_id": "Q58", "stop_id": "503964", "stop_name": "MERRICK BLVD/ARCHER AV", "bus_stop_latitude": 40.704907, "bus_stop_longitude": -73.793306, "count_bus_route_id": "3" }, "geometry": { "type": "Point", "coordinates": [ -73.793306, 40.704907 ] } },
{ "type": "Feature", "properties": { "bus_route_id": "Q58", "stop_id": "503982", "stop_name": "COLLEGE POINT BLVD/FOWLER AV", "bus_stop_latitude": 40.752011, "bus_stop_longitude": -73.832316, "count_bus_route_id": "114" }, "geometry": { "type": "Point", "coordinates": [ -73.832316, 40.752011 ] } },
{ "type": "Feature", "properties": { "bus_route_id": "Q58", "stop_id": "504020", "stop_name": "COLLEGE POINT BLVD/AVERY AV", "bus_stop_latitude": 40.752274, "bus_stop_longitude": -73.832366, "count_bus_route_id": "900" }, "geometry": { "type": "Point", "coordinates": [ -73.832366, 40.752274 ] } },
{ "type": "Feature", "properties": { "bus_route_id": "Q58", "stop_id": "504080", "stop_name": "JAMAICA AV/METROPOLITAN AV", "bus_stop_latitude": 40.702459, "bus_stop_longitude": -73.81799, "count_bus_route_id": "2" }, "geometry": { "type": "Point", "coordinates": [ -73.81799, 40.702459 ] } },
{ "type": "Feature", "properties": { "bus_route_id": "Q58", "stop_id": "504107", "stop_name": "PUTNAM AV/FRESH POND RD", "bus_stop_latitude": 40.706427, "bus_stop_longitude": -73.897352, "count_bus_route_id": "295" }, "geometry": { "type": "Point", "coordinates": [ -73.897352, 40.706427 ] } },
{ "type": "Feature", "properties": { "bus_route_id": "Q58", "stop_id": "504109", "stop_name": "PUTNAM AV/FOREST AV", "bus_stop_latitude": 40.704802, "bus_stop_longitude": -73.902065, "count_bus_route_id": "340" }, "geometry": { "type": "Point", "coordinates": [ -73.902065, 40.704802 ] } },
{ "type": "Feature", "properties": { "bus_route_id": "Q58", "stop_id": "504109", "stop_name": "PUTNAM AV/FOREST AV", "bus_stop_latitude": 40.705216, "bus_stop_longitude": -73.901966, "count_bus_route_id": "1230" }, "geometry": { "type": "Point", "coordinates": [ -73.901966, 40.705216 ] } },
{ "type": "Feature", "properties": { "bus_route_id": "Q58", "stop_id": "504155", "stop_name": "CYPRESS AV/PALMETTO ST", "bus_stop_latitude": 40.701455, "bus_stop_longitude": -73.908578, "count_bus_route_id": "840" }, "geometry": { "type": "Point", "coordinates": [ -73.908578, 40.701455 ] } },
{ "type": "Feature", "properties": { "bus_route_id": "Q58", "stop_id": "504196", "stop_name": "JAMAICA AV/144 PL", "bus_stop_latitude": 40.702136, "bus_stop_longitude": -73.810958, "count_bus_route_id": "5" }, "geometry": { "type": "Point", "coordinates": [ -73.810958, 40.702136 ] } },
{ "type": "Feature", "properties": { "bus_route_id": "Q58", "stop_id": "504198", "stop_name": "JAMAICA AV/144 ST", "bus_stop_latitude": 40.702306, "bus_stop_longitude": -73.811385, "count_bus_route_id": "1" }, "geometry": { "type": "Point", "coordinates": [ -73.811385, 40.702306 ] } },
{ "type": "Feature", "properties": { "bus_route_id": "Q58", "stop_id": "504198", "stop_name": "JAMAICA AV/144 ST", "bus_stop_latitude": 40.702335, "bus_stop_longitude": -73.811368, "count_bus_route_id": "5" }, "geometry": { "type": "Point", "coordinates": [ -73.811368, 40.702335 ] } },
{ "type": "Feature", "properties": { "bus_route_id": "Q58", "stop_id": "504199", "stop_name": "JAMAICA AV/QUEENS BLVD", "bus_stop_latitude": 40.702584, "bus_stop_longitude": -73.81414, "count_bus_route_id": "5" }, "geometry": { "type": "Point", "coordinates": [ -73.81414, 40.702584 ] } },
{ "type": "Feature", "properties": { "bus_route_id": "Q58", "stop_id": "504238", "stop_name": "SENECA AV/CORNELIA ST", "bus_stop_latitude": 40.701057, "bus_stop_longitude": -73.90486, "count_bus_route_id": "1677" }, "geometry": { "type": "Point", "coordinates": [ -73.90486, 40.701057 ] } },
{ "type": "Feature", "properties": { "bus_route_id": "Q58", "stop_id": "504253", "stop_name": "METROPOLITAN AV/GRANDVIEW AV", "bus_stop_latitude": 40.713227, "bus_stop_longitude": -73.912451, "count_bus_route_id": "1" }, "geometry": { "type": "Point", "coordinates": [ -73.912451, 40.713227 ] } },
{ "type": "Feature", "properties": { "bus_route_id": "Q58", "stop_id": "504254", "stop_name": "METROPOLITAN AV/AMORY CT", "bus_stop_latitude": 40.713027, "bus_stop_longitude": -73.909316, "count_bus_route_id": "6" }, "geometry": { "type": "Point", "coordinates": [ -73.909316, 40.713027 ] } },
{ "type": "Feature", "properties": { "bus_route_id": "Q58", "stop_id": "504256", "stop_name": "METROPOLITAN AV/FOREST AV", "bus_stop_latitude": 40.712821, "bus_stop_longitude": -73.905623, "count_bus_route_id": "22" }, "geometry": { "type": "Point", "coordinates": [ -73.905623, 40.712821 ] } },
{ "type": "Feature", "properties": { "bus_route_id": "Q58", "stop_id": "504258", "stop_name": "METROPOLITAN AV/61 ST", "bus_stop_latitude": 40.712681, "bus_stop_longitude": -73.901771, "count_bus_route_id": "4" }, "geometry": { "type": "Point", "coordinates": [ -73.901771, 40.712681 ] } },
{ "type": "Feature", "properties": { "bus_route_id": "Q58", "stop_id": "504259", "stop_name": "METROPOLITAN AV/FRESH POND RD", "bus_stop_latitude": 40.712616, "bus_stop_longitude": -73.899988, "count_bus_route_id": "127" }, "geometry": { "type": "Point", "coordinates": [ -73.899988, 40.712616 ] } },
{ "type": "Feature", "properties": { "bus_route_id": "Q58", "stop_id": "504259", "stop_name": "METROPOLITAN AV/FRESH POND RD", "bus_stop_latitude": 40.712618, "bus_stop_longitude": -73.899752, "count_bus_route_id": "217" }, "geometry": { "type": "Point", "coordinates": [ -73.899752, 40.712618 ] } },
{ "type": "Feature", "properties": { "bus_route_id": "Q58", "stop_id": "504260", "stop_name": "METROPOLITAN AV/65 ST", "bus_stop_latitude": 40.712428, "bus_stop_longitude": -73.895498, "count_bus_route_id": "2" }, "geometry": { "type": "Point", "coordinates": [ -73.895498, 40.712428 ] } },
{ "type": "Feature", "properties": { "bus_route_id": "Q58", "stop_id": "504260", "stop_name": "METROPOLITAN AV/65 ST", "bus_stop_latitude": 40.712452, "bus_stop_longitude": -73.895772, "count_bus_route_id": "6" }, "geometry": { "type": "Point", "coordinates": [ -73.895772, 40.712452 ] } },
{ "type": "Feature", "properties": { "bus_route_id": "Q58", "stop_id": "504261", "stop_name": "METROPOLITAN AV/CHRIST THE KING HS", "bus_stop_latitude": 40.712209, "bus_stop_longitude": -73.888667, "count_bus_route_id": "1" }, "geometry": { "type": "Point", "coordinates": [ -73.888667, 40.712209 ] } },
{ "type": "Feature", "properties": { "bus_route_id": "Q58", "stop_id": "504261", "stop_name": "METROPOLITAN AV/RENTAR PLAZA EAST", "bus_stop_latitude": 40.712226, "bus_stop_longitude": -73.88867, "count_bus_route_id": "3" }, "geometry": { "type": "Point", "coordinates": [ -73.88867, 40.712226 ] } },
{ "type": "Feature", "properties": { "bus_route_id": "Q58", "stop_id": "504262", "stop_name": "METROPOLITAN AV/69 ST", "bus_stop_latitude": 40.71212, "bus_stop_longitude": -73.88586, "count_bus_route_id": "3" }, "geometry": { "type": "Point", "coordinates": [ -73.88586, 40.71212 ] } },
{ "type": "Feature", "properties": { "bus_route_id": "Q58", "stop_id": "504263", "stop_name": "METROPOLITAN AV/71 ST", "bus_stop_latitude": 40.7122, "bus_stop_longitude": -73.883985, "count_bus_route_id": "1" }, "geometry": { "type": "Point", "coordinates": [ -73.883985, 40.7122 ] } },
{ "type": "Feature", "properties": { "bus_route_id": "Q58", "stop_id": "504265", "stop_name": "METROPOLITAN AV/73 PL", "bus_stop_latitude": 40.712706, "bus_stop_longitude": -73.878927, "count_bus_route_id": "3" }, "geometry": { "type": "Point", "coordinates": [ -73.878927, 40.712706 ] } },
{ "type": "Feature", "properties": { "bus_route_id": "Q58", "stop_id": "504266", "stop_name": "METROPOLITAN AV/75 ST", "bus_stop_latitude": 40.712877, "bus_stop_longitude": -73.877289, "count_bus_route_id": "1" }, "geometry": { "type": "Point", "coordinates": [ -73.877289, 40.712877 ] } },
{ "type": "Feature", "properties": { "bus_route_id": "Q58", "stop_id": "504267", "stop_name": "METROPOLITAN AV/78 ST", "bus_stop_latitude": 40.713051, "bus_stop_longitude": -73.875607, "count_bus_route_id": "1" }, "geometry": { "type": "Point", "coordinates": [ -73.875607, 40.713051 ] } },
{ "type": "Feature", "properties": { "bus_route_id": "Q58", "stop_id": "504268", "stop_name": "METROPOLITAN AV/79 ST", "bus_stop_latitude": 40.713164, "bus_stop_longitude": -73.873713, "count_bus_route_id": "3" }, "geometry": { "type": "Point", "coordinates": [ -73.873713, 40.713164 ] } },
{ "type": "Feature", "properties": { "bus_route_id": "Q58", "stop_id": "504271", "stop_name": "METROPOLITAN AV/COOPER AV", "bus_stop_latitude": 40.712077, "bus_stop_longitude": -73.861697, "count_bus_route_id": "1" }, "geometry": { "type": "Point", "coordinates": [ -73.861697, 40.712077 ] } },
{ "type": "Feature", "properties": { "bus_route_id": "Q58", "stop_id": "504273", "stop_name": "METROPOLITAN AV/WOODHAVEN BLVD", "bus_stop_latitude": 40.711685, "bus_stop_longitude": -73.859005, "count_bus_route_id": "2" }, "geometry": { "type": "Point", "coordinates": [ -73.859005, 40.711685 ] } },
{ "type": "Feature", "properties": { "bus_route_id": "Q58", "stop_id": "504274", "stop_name": "METROPOLITAN AV/SELFRIDGE ST", "bus_stop_latitude": 40.711313, "bus_stop_longitude": -73.856719, "count_bus_route_id": "2" }, "geometry": { "type": "Point", "coordinates": [ -73.856719, 40.711313 ] } },
{ "type": "Feature", "properties": { "bus_route_id": "Q58", "stop_id": "504275", "stop_name": "METROPOLITAN AV/69 RD", "bus_stop_latitude": 40.710974, "bus_stop_longitude": -73.854424, "count_bus_route_id": "1" }, "geometry": { "type": "Point", "coordinates": [ -73.854424, 40.710974 ] } },
{ "type": "Feature", "properties": { "bus_route_id": "Q58", "stop_id": "504276", "stop_name": "METROPOLITAN AV/70 RD", "bus_stop_latitude": 40.710651, "bus_stop_longitude": -73.852391, "count_bus_route_id": "2" }, "geometry": { "type": "Point", "coordinates": [ -73.852391, 40.710651 ] } },
{ "type": "Feature", "properties": { "bus_route_id": "Q58", "stop_id": "504277", "stop_name": "METROPOLITAN AV/71 AV", "bus_stop_latitude": 40.710321, "bus_stop_longitude": -73.850295, "count_bus_route_id": "2" }, "geometry": { "type": "Point", "coordinates": [ -73.850295, 40.710321 ] } },
{ "type": "Feature", "properties": { "bus_route_id": "Q58", "stop_id": "504280", "stop_name": "METROPOLITAN AV/UNION TPKE", "bus_stop_latitude": 40.709306, "bus_stop_longitude": -73.843866, "count_bus_route_id": "1" }, "geometry": { "type": "Point", "coordinates": [ -73.843866, 40.709306 ] } },
{ "type": "Feature", "properties": { "bus_route_id": "Q58", "stop_id": "504281", "stop_name": "METROPOLITAN AV/PARK LN SOUTH", "bus_stop_latitude": 40.707775, "bus_stop_longitude": -73.836774, "count_bus_route_id": "4" }, "geometry": { "type": "Point", "coordinates": [ -73.836774, 40.707775 ] } },
{ "type": "Feature", "properties": { "bus_route_id": "Q58", "stop_id": "504282", "stop_name": "METROPOLITAN AV/118 ST", "bus_stop_latitude": 40.706888, "bus_stop_longitude": -73.834531, "count_bus_route_id": "6" }, "geometry": { "type": "Point", "coordinates": [ -73.834531, 40.706888 ] } },
{ "type": "Feature", "properties": { "bus_route_id": "Q58", "stop_id": "504283", "stop_name": "METROPOLITAN AV/LEFFERTS BL", "bus_stop_latitude": 40.705969, "bus_stop_longitude": -73.831302, "count_bus_route_id": "1" }, "geometry": { "type": "Point", "coordinates": [ -73.831302, 40.705969 ] } },
{ "type": "Feature", "properties": { "bus_route_id": "Q58", "stop_id": "504283", "stop_name": "METROPOLITAN AV/LEFFERTS BLVD", "bus_stop_latitude": 40.705969, "bus_stop_longitude": -73.831302, "count_bus_route_id": "3" }, "geometry": { "type": "Point", "coordinates": [ -73.831302, 40.705969 ] } },
{ "type": "Feature", "properties": { "bus_route_id": "Q58", "stop_id": "504285", "stop_name": "METROPOLITAN AV/124 ST", "bus_stop_latitude": 40.704944, "bus_stop_longitude": -73.827758, "count_bus_route_id": "1" }, "geometry": { "type": "Point", "coordinates": [ -73.827758, 40.704944 ] } },
{ "type": "Feature", "properties": { "bus_route_id": "Q58", "stop_id": "504286", "stop_name": "METROPOLITAN AV/HILLSIDE AV", "bus_stop_latitude": 40.703712, "bus_stop_longitude": -73.82302, "count_bus_route_id": "5" }, "geometry": { "type": "Point", "coordinates": [ -73.82302, 40.703712 ] } },
{ "type": "Feature", "properties": { "bus_route_id": "Q58", "stop_id": "504288", "stop_name": "METROPOLITAN AV/132 ST", "bus_stop_latitude": 40.703227, "bus_stop_longitude": -73.820598, "count_bus_route_id": "2" }, "geometry": { "type": "Point", "coordinates": [ -73.820598, 40.703227 ] } },
{ "type": "Feature", "properties": { "bus_route_id": "Q58", "stop_id": "504289", "stop_name": "JAMAICA AV/134 ST", "bus_stop_latitude": 40.702355, "bus_stop_longitude": -73.818286, "count_bus_route_id": "3" }, "geometry": { "type": "Point", "coordinates": [ -73.818286, 40.702355 ] } },
{ "type": "Feature", "properties": { "bus_route_id": "Q58", "stop_id": "504293", "stop_name": "JAMAICA AV/138 ST", "bus_stop_latitude": 40.702504, "bus_stop_longitude": -73.81577, "count_bus_route_id": "1" }, "geometry": { "type": "Point", "coordinates": [ -73.81577, 40.702504 ] } },
{ "type": "Feature", "properties": { "bus_route_id": "Q58", "stop_id": "504296", "stop_name": "METROPOLITAN AV/129 ST", "bus_stop_latitude": 40.703938, "bus_stop_longitude": -73.823869, "count_bus_route_id": "3" }, "geometry": { "type": "Point", "coordinates": [ -73.823869, 40.703938 ] } },
{ "type": "Feature", "properties": { "bus_route_id": "Q58", "stop_id": "504298", "stop_name": "METROPOLITAN AV/125 ST", "bus_stop_latitude": 40.704872, "bus_stop_longitude": -73.827177, "count_bus_route_id": "4" }, "geometry": { "type": "Point", "coordinates": [ -73.827177, 40.704872 ] } },
{ "type": "Feature", "properties": { "bus_route_id": "Q58", "stop_id": "504299", "stop_name": "METROPOLITAN AV/BREVOORT ST", "bus_stop_latitude": 40.705685, "bus_stop_longitude": -73.830026, "count_bus_route_id": "2" }, "geometry": { "type": "Point", "coordinates": [ -73.830026, 40.705685 ] } },
{ "type": "Feature", "properties": { "bus_route_id": "Q58", "stop_id": "504300", "stop_name": "METROPOLITAN AV/LEFFERTS BLVD", "bus_stop_latitude": 40.706296, "bus_stop_longitude": -73.832216, "count_bus_route_id": "1" }, "geometry": { "type": "Point", "coordinates": [ -73.832216, 40.706296 ] } },
{ "type": "Feature", "properties": { "bus_route_id": "Q58", "stop_id": "504302", "stop_name": "METROPOLITAN AV/PARK LA S", "bus_stop_latitude": 40.708029, "bus_stop_longitude": -73.837264, "count_bus_route_id": "2" }, "geometry": { "type": "Point", "coordinates": [ -73.837264, 40.708029 ] } },
{ "type": "Feature", "properties": { "bus_route_id": "Q58", "stop_id": "504302", "stop_name": "METROPOLITAN AV/PARK LN SOUTH", "bus_stop_latitude": 40.708029, "bus_stop_longitude": -73.837264, "count_bus_route_id": "4" }, "geometry": { "type": "Point", "coordinates": [ -73.837264, 40.708029 ] } },
{ "type": "Feature", "properties": { "bus_route_id": "Q58", "stop_id": "504303", "stop_name": "METROPOLITAN AV/FOREST PARK DR", "bus_stop_latitude": 40.708626, "bus_stop_longitude": -73.839131, "count_bus_route_id": "3" }, "geometry": { "type": "Point", "coordinates": [ -73.839131, 40.708626 ] } },
{ "type": "Feature", "properties": { "bus_route_id": "Q58", "stop_id": "504304", "stop_name": "METROPOLITAN AV/75 AV", "bus_stop_latitude": 40.709507, "bus_stop_longitude": -73.844554, "count_bus_route_id": "4" }, "geometry": { "type": "Point", "coordinates": [ -73.844554, 40.709507 ] } },
{ "type": "Feature", "properties": { "bus_route_id": "Q58", "stop_id": "504305", "stop_name": "METROPOLITAN AV/ASCAN AV", "bus_stop_latitude": 40.70981, "bus_stop_longitude": -73.846411, "count_bus_route_id": "3" }, "geometry": { "type": "Point", "coordinates": [ -73.846411, 40.70981 ] } },
{ "type": "Feature", "properties": { "bus_route_id": "Q58", "stop_id": "504306", "stop_name": "METROPOLITAN AV/72 AV", "bus_stop_latitude": 40.710197, "bus_stop_longitude": -73.848842, "count_bus_route_id": "3" }, "geometry": { "type": "Point", "coordinates": [ -73.848842, 40.710197 ] } },
{ "type": "Feature", "properties": { "bus_route_id": "Q58", "stop_id": "504307", "stop_name": "METROPOLITAN AV/71 AV", "bus_stop_latitude": 40.710624, "bus_stop_longitude": -73.851574, "count_bus_route_id": "2" }, "geometry": { "type": "Point", "coordinates": [ -73.851574, 40.710624 ] } },
{ "type": "Feature", "properties": { "bus_route_id": "Q58", "stop_id": "504309", "stop_name": "METROPOLITAN AV/69 AV", "bus_stop_latitude": 40.711236, "bus_stop_longitude": -73.85551, "count_bus_route_id": "2" }, "geometry": { "type": "Point", "coordinates": [ -73.85551, 40.711236 ] } },
{ "type": "Feature", "properties": { "bus_route_id": "Q58", "stop_id": "504313", "stop_name": "METROPOLITAN AV/80 ST", "bus_stop_latitude": 40.713327, "bus_stop_longitude": -73.872028, "count_bus_route_id": "4" }, "geometry": { "type": "Point", "coordinates": [ -73.872028, 40.713327 ] } },
{ "type": "Feature", "properties": { "bus_route_id": "Q58", "stop_id": "504314", "stop_name": "METROPOLITAN AV/79 ST", "bus_stop_latitude": 40.713228, "bus_stop_longitude": -73.874727, "count_bus_route_id": "6" }, "geometry": { "type": "Point", "coordinates": [ -73.874727, 40.713228 ] } },
{ "type": "Feature", "properties": { "bus_route_id": "Q58", "stop_id": "504315", "stop_name": "METROPOLITAN AV/74 ST", "bus_stop_latitude": 40.712825, "bus_stop_longitude": -73.878736, "count_bus_route_id": "4" }, "geometry": { "type": "Point", "coordinates": [ -73.878736, 40.712825 ] } },
{ "type": "Feature", "properties": { "bus_route_id": "Q58", "stop_id": "504317", "stop_name": "METROPOLITAN AV/PLEASANT VIEW ST", "bus_stop_latitude": 40.712455, "bus_stop_longitude": -73.882484, "count_bus_route_id": "1" }, "geometry": { "type": "Point", "coordinates": [ -73.882484, 40.712455 ] } },
{ "type": "Feature", "properties": { "bus_route_id": "Q58", "stop_id": "504318", "stop_name": "METROPOLITAN AV/71 ST", "bus_stop_latitude": 40.712253, "bus_stop_longitude": -73.884717, "count_bus_route_id": "2" }, "geometry": { "type": "Point", "coordinates": [ -73.884717, 40.712253 ] } },
{ "type": "Feature", "properties": { "bus_route_id": "Q58", "stop_id": "504322", "stop_name": "METROPOLITAN AV/MOUNT OLIVET CRES", "bus_stop_latitude": 40.712511, "bus_stop_longitude": -73.894975, "count_bus_route_id": "30" }, "geometry": { "type": "Point", "coordinates": [ -73.894975, 40.712511 ] } },
{ "type": "Feature", "properties": { "bus_route_id": "Q58", "stop_id": "504322", "stop_name": "METROPOLITAN AV/MT OLIVET CRES", "bus_stop_latitude": 40.712575, "bus_stop_longitude": -73.894916, "count_bus_route_id": "2" }, "geometry": { "type": "Point", "coordinates": [ -73.894916, 40.712575 ] } },
{ "type": "Feature", "properties": { "bus_route_id": "Q58", "stop_id": "504323", "stop_name": "METROPOLITAN AV/65 ST", "bus_stop_latitude": 40.71258, "bus_stop_longitude": -73.896584, "count_bus_route_id": "1" }, "geometry": { "type": "Point", "coordinates": [ -73.896584, 40.71258 ] } },
{ "type": "Feature", "properties": { "bus_route_id": "Q58", "stop_id": "504323", "stop_name": "METROPOLITAN AV/65 ST", "bus_stop_latitude": 40.712627, "bus_stop_longitude": -73.896432, "count_bus_route_id": "1" }, "geometry": { "type": "Point", "coordinates": [ -73.896432, 40.712627 ] } },
{ "type": "Feature", "properties": { "bus_route_id": "Q58", "stop_id": "504324", "stop_name": "METROPOLITAN AV/FRESH POND RD", "bus_stop_latitude": 40.712776, "bus_stop_longitude": -73.901445, "count_bus_route_id": "70" }, "geometry": { "type": "Point", "coordinates": [ -73.901445, 40.712776 ] } },
{ "type": "Feature", "properties": { "bus_route_id": "Q58", "stop_id": "504324", "stop_name": "METROPOLITAN AV/FRESH POND RD", "bus_stop_latitude": 40.712789, "bus_stop_longitude": -73.901216, "count_bus_route_id": "29" }, "geometry": { "type": "Point", "coordinates": [ -73.901216, 40.712789 ] } },
{ "type": "Feature", "properties": { "bus_route_id": "Q58", "stop_id": "504325", "stop_name": "METROPOLITAN AV/60 LN", "bus_stop_latitude": 40.712858, "bus_stop_longitude": -73.90335, "count_bus_route_id": "1" }, "geometry": { "type": "Point", "coordinates": [ -73.90335, 40.712858 ] } },
{ "type": "Feature", "properties": { "bus_route_id": "Q58", "stop_id": "504326", "stop_name": "METROPOLITAN AV/ELIOT AV", "bus_stop_latitude": 40.712885, "bus_stop_longitude": -73.904369, "count_bus_route_id": "4" }, "geometry": { "type": "Point", "coordinates": [ -73.904369, 40.712885 ] } },